Station ID,Station Name,LATITUDE,LONGITUDE,Current Reading:,Return Period,RTP_COLOR,PCT of Mean Ann Disch=,PCT_CL,WSC Real-Time Data,Updated at
07EA004,INGENIKA RIVER ABOVE SWANNELL RIVER,56.73028,-125.1028,"H= 3.592 (m),  Q= 140 (m3/s)",<1Y,0,=244.07%,100,https://wateroffice.ec.gc.ca/report/real_time_e.html?stn=07EA004,11:59AM Fri 2024-07-26
07EA005,FINLAY RIVER ABOVE AKIE RIVER,57.13028,-125.2508,"H= 2.254 (m),  Q= 708 (m3/s)",<1Y,0,=277.06%,100,https://wateroffice.ec.gc.ca/report/real_time_e.html?stn=07EA005,11:59AM Fri 2024-07-26
07EA007,AKIE RIVER NEAR THE 760 M CONTOUR,57.19111,-124.8989,"H= 8.055 (m),  Q= 65 (m3/s)",<1Y,0,=215.02%,100,https://wateroffice.ec.gc.ca/report/real_time_e.html?stn=07EA007,11:59AM Fri 2024-07-26
07EB002,OSPIKA RIVER ABOVE ALEY CREEK,56.52833,-123.9333,"H= 1.85 (m),  Q= 50.4 (m3/s)",<1Y,0,=128.47%,100,https://wateroffice.ec.gc.ca/report/real_time_e.html?stn=07EB002,11:59AM Fri 2024-07-26
07EC002,OMINECA RIVER ABOVE OSILINKA RIVER,55.91611,-124.5675,"H= 2.335 (m),  Q= 108 (m3/s)",<1Y,0,=120.98%,100,https://wateroffice.ec.gc.ca/report/real_time_e.html?stn=07EC002,11:59AM Fri 2024-07-26
07EC003,MESILINKA RIVER ABOVE GOPHERHOLE CREEK,56.24389,-124.6433,"H= 2.71 (m),  Q= 94.7 (m3/s)",<1Y,0,=214.16%,100,https://wateroffice.ec.gc.ca/report/real_time_e.html?stn=07EC003,11:59AM Fri 2024-07-26
07EC004,OSILINKA RIVER NEAR END LAKE,56.12667,-124.8014,"H= 2.836 (m),  Q= 51.3 (m3/s)",<1Y,0,=145.99%,100,https://wateroffice.ec.gc.ca/report/real_time_e.html?stn=07EC004,11:59AM Fri 2024-07-26
07ED003,NATION RIVER NEAR THE MOUTH,55.435,-123.6161,"H= 0.483 (m),  Q= 38.3 (m3/s)",<1Y,0,=45.78%,20,https://wateroffice.ec.gc.ca/report/real_time_e.html?stn=07ED003,11:59AM Fri 2024-07-26
07EE007,PARSNIP RIVER ABOVE MISINCHINKA RIVER,55.07806,-122.9047,"H= 1.26 (m),  Q= 76.5 (m3/s)",<1Y,0,=51.92%,50,https://wateroffice.ec.gc.ca/report/real_time_e.html?stn=07EE007,11:59AM Fri 2024-07-26
07EE009,CHUCHINKA CREEK NEAR THE MOUTH,54.52917,-122.6,"H= 2.926 (m),  Q= 0.754 (m3/s)",<1Y,0,=14.56%,10,https://wateroffice.ec.gc.ca/report/real_time_e.html?stn=07EE009,11:59AM Fri 2024-07-26
07EE010,PACK RIVER AT OUTLET OF MCLEOD LAKE,54.99583,-123.0356,"H= 0.593 (m),  Q= 15.1 (m3/s)",<1Y,0,=34.38%,20,https://wateroffice.ec.gc.ca/report/real_time_e.html?stn=07EE010,11:59AM Fri 2024-07-26
07EF002,WILLISTON LAKE AT LOST CABIN CREEK,56.04972,-123.7456,H= 36.417 (m),=1-2Y,1,NO DATA,-9999,https://wateroffice.ec.gc.ca/report/real_time_e.html?stn=07EF002,11:59AM Fri 2024-07-26
07EF003,WILLISTON LAKE NEAR SCHOOLER CREEK,56.10556,-122.7325,H= 36.447 (m),=1-2Y,1,NO DATA,-9999,https://wateroffice.ec.gc.ca/report/real_time_e.html?stn=07EF003,11:59AM Fri 2024-07-26
07EF004,CARBON CREEK NEAR THE MOUTH,55.92972,-122.6569,"H= 4.234 (m),  Q= 9.14 (m3/s)",<1Y,0,=70.47%,50,https://wateroffice.ec.gc.ca/report/real_time_e.html?stn=07EF004,11:59AM Fri 2024-07-26
07FA003,HALFWAY RIVER ABOVE GRAHAM RIVER,56.50833,-122.24111,"H= 4.067 (m),  Q= 51 (m3/s)",<1Y,0,=146.38%,100,https://wateroffice.ec.gc.ca/report/real_time_e.html?stn=07FA003,11:59AM Fri 2024-07-26
07FA004,PEACE RIVER ABOVE PINE RIVER,56.199167,-120.814444,"H= 0.959 (m),  Q= 859 (m3/s)",<1Y,0,=69.03%,50,https://wateroffice.ec.gc.ca/report/real_time_e.html?stn=07FA004,11:59AM Fri 2024-07-26
07FA005,GRAHAM RIVER ABOVE COLT CREEK,56.45861,-122.35611,"H= 0.178 (m),  Q= 33.7 (m3/s)",<1Y,0,=142.25%,100,https://wateroffice.ec.gc.ca/report/real_time_e.html?stn=07FA005,11:59AM Fri 2024-07-26
07FA006,HALFWAY RIVER NEAR FARRELL CREEK,56.25111,-121.6275,"H= 0.516 (m),  Q= 82.1 (m3/s)",<1Y,0,=114.27%,100,https://wateroffice.ec.gc.ca/report/real_time_e.html?stn=07FA006,11:59AM Fri 2024-07-26
07FB001,PINE RIVER AT EAST PINE,55.72,-121.2078,"H= 1.938 (m),  Q= 107 (m3/s)",<1Y,0,=54.63%,50,https://wateroffice.ec.gc.ca/report/real_time_e.html?stn=07FB001,11:59AM Fri 2024-07-26
07FB002,MURRAY RIVER NEAR THE MOUTH,55.55639,-121.20417,"H= 7.713 (m),  Q= 60.6 (m3/s)",<1Y,0,=72.04%,50,https://wateroffice.ec.gc.ca/report/real_time_e.html?stn=07FB002,11:59AM Fri 2024-07-26
07FB003,SUKUNKA RIVER NEAR THE MOUTH,55.54278,-121.6244,"H= 2.461 (m),  Q= 44.4 (m3/s)",<1Y,0,=79.58%,50,https://wateroffice.ec.gc.ca/report/real_time_e.html?stn=07FB003,11:59AM Fri 2024-07-26
07FB004,DICKEBUSCH CREEK NEAR THE MOUTH,55.53778,-121.59681,"H= 1.08 (m),  Q= 0.119 (m3/s)",<1Y,0,=19.19%,10,https://wateroffice.ec.gc.ca/report/real_time_e.html?stn=07FB004,11:59AM Fri 2024-07-26
07FB006,MURRAY RIVER ABOVE WOLVERINE RIVER,55.06528,-121.0125,"H= 1.321 (m),  Q= 46.5 (m3/s)",<1Y,0,=80.52%,50,https://wateroffice.ec.gc.ca/report/real_time_e.html?stn=07FB006,11:59AM Fri 2024-07-26
07FB008,MOBERLY RIVER NEAR FORT ST. JOHN,56.09306,-121.3469,"H= 1.908 (m),  Q= 6.13 (m3/s)",<1Y,0,=51.82%,50,https://wateroffice.ec.gc.ca/report/real_time_e.html?stn=07FB008,11:59AM Fri 2024-07-26
07FB009,FLATBED CREEK AT KILOMETRE 110 HERITAGE HIGHWAY,55.08917,-120.94,"H= 7.99 (m),  Q= 1.34 (m3/s)",<1Y,0,=31.38%,20,https://wateroffice.ec.gc.ca/report/real_time_e.html?stn=07FB009,11:59AM Fri 2024-07-26
07FC001,BEATTON RIVER NEAR FORT ST. JOHN,56.28,-120.7,"H= 2.032 (m),  Q= 7.92 (m3/s)",<1Y,0,=14.57%,10,https://wateroffice.ec.gc.ca/report/real_time_e.html?stn=07FC001,11:59AM Fri 2024-07-26
07FC003,BLUEBERRY RIVER BELOW AITKEN CREEK,56.67722,-121.22083,"H= 1.852 (m),  Q= 0.395 (m3/s)",<1Y,0,=7.36%,5,https://wateroffice.ec.gc.ca/report/real_time_e.html?stn=07FC003,11:59AM Fri 2024-07-26
07FD001,KISKATINAW RIVER NEAR FARMINGTON,55.95694,-120.5625,NO DATA,=NO DATA,-9999,NO DATA,-9999,https://wateroffice.ec.gc.ca/report/real_time_e.html?stn=07FD001,11:59AM Fri 2024-07-26
07FD002,PEACE RIVER NEAR TAYLOR,56.13583,-120.6703,"H= 2.646 (m),  Q= 1020 (m3/s)",<1Y,0,=70.65%,50,https://wateroffice.ec.gc.ca/report/real_time_e.html?stn=07FD002,11:59AM Fri 2024-07-26
07FD007,POUCE COUPE RIVER BELOW HENDERSON CREEK,55.86472,-120.02944,"H= 10.091 (m),  Q= 0.245 (m3/s)",<1Y,0,=3.44%,2,https://wateroffice.ec.gc.ca/report/real_time_e.html?stn=07FD007,11:59AM Fri 2024-07-26
07FD010,PEACE RIVER ABOVE ALCES RIVER,56.12556,-120.0589,"H= 2.715 (m),  Q= 1130 (m3/s)",<1Y,0,=74.14%,50,https://wateroffice.ec.gc.ca/report/real_time_e.html?stn=07FD010,11:59AM Fri 2024-07-26
08CE001,STIKINE RIVER AT TELEGRAPH CREEK,57.90083,-131.15444,"H= 3.876 (m),  Q= 1070 (m3/s)",<1Y,0,=253.99%,100,https://wateroffice.ec.gc.ca/report/real_time_e.html?stn=08CE001,11:59AM Fri 2024-07-26
08CG001,ISKUT RIVER BELOW JOHNSON RIVER,56.73889,-131.6736,"H= 2.145 (m),  Q= 768 (m3/s)",<1Y,0,=165.14%,100,https://wateroffice.ec.gc.ca/report/real_time_e.html?stn=08CG001,11:59AM Fri 2024-07-26
08DA005,SURPRISE CREEK NEAR THE MOUTH,56.10972,-129.47583,"H= 1.302 (m),  Q= 24.1 (m3/s)",<1Y,0,=156.19%,100,https://wateroffice.ec.gc.ca/report/real_time_e.html?stn=08DA005,11:59AM Fri 2024-07-26
08DB001,NASS RIVER ABOVE SHUMAL CREEK,55.26225,-129.08503,"H= 4.803 (m),  Q= 1050 (m3/s)",<1Y,0,=130.25%,100,https://wateroffice.ec.gc.ca/report/real_time_e.html?stn=08DB001,11:59AM Fri 2024-07-26
08DB013,ANSEDAGAN CREEK NEAR NEW AIYANSH,55.13278,-129.35639,"H= 4.446 (m),  Q= 0.598 (m3/s)",<1Y,0,=61.02%,50,https://wateroffice.ec.gc.ca/report/real_time_e.html?stn=08DB013,11:59AM Fri 2024-07-26
08EB003,SKEENA RIVER AT GLEN VOWELL,55.3025,-127.66972,H= 1.951 (m),<1Y,0,NO DATA,-9999,https://wateroffice.ec.gc.ca/report/real_time_e.html?stn=08EB003,11:59AM Fri 2024-07-26
08EB004,KISPIOX RIVER NEAR HAZELTON,55.43361,-127.71417,"H= 0.896 (m),  Q= 17.5 (m3/s)",<1Y,0,=39.18%,20,https://wateroffice.ec.gc.ca/report/real_time_e.html?stn=08EB004,11:59AM Fri 2024-07-26
08EB005,SKEENA RIVER ABOVE BABINE RIVER,55.71611,-127.68472,"H= 8.129 (m),  Q= 507 (m3/s)",<1Y,0,=144.92%,100,https://wateroffice.ec.gc.ca/report/real_time_e.html?stn=08EB005,11:59AM Fri 2024-07-26
08EB006,COMPASS CREEK NEAR KISPIOX,55.45833,-127.8525,NO DATA,=NO DATA,-9999,NO DATA,-9999,https://wateroffice.ec.gc.ca/report/real_time_e.html?stn=08EB006,11:59AM Fri 2024-07-26
08EC001,BABINE RIVER AT BABINE,55.32361,-126.62778,H= 0.826 (m),<1Y,0,NO DATA,-9999,https://wateroffice.ec.gc.ca/report/real_time_e.html?stn=08EC001,11:59AM Fri 2024-07-26
08EC003,BABINE LAKE AT TOPLEY LANDING,54.82194,-126.15194,H= 1.071 (m),<1Y,0,NO DATA,-9999,https://wateroffice.ec.gc.ca/report/real_time_e.html?stn=08EC003,11:59AM Fri 2024-07-26
08EC004,PINKUT CREEK NEAR TINTAGEL,54.40556,-125.42806,"H= 0.845 (m),  Q= 1.84 (m3/s)",<1Y,0,=34.72%,20,https://wateroffice.ec.gc.ca/report/real_time_e.html?stn=08EC004,11:59AM Fri 2024-07-26
08EC013,BABINE RIVER AT OUTLET OF NILKITKWA LAKE,55.425,-126.70278,"H= 0.286 (m),  Q= 32.7 (m3/s)",<1Y,0,=63.45%,50,https://wateroffice.ec.gc.ca/report/real_time_e.html?stn=08EC013,11:59AM Fri 2024-07-26
08ED001,NANIKA RIVER AT OUTLET OF KIDPRICE LAKE,53.93056,-127.45278,"H= 3.595 (m),  Q= 29.9 (m3/s)",<1Y,0,=103.39%,100,https://wateroffice.ec.gc.ca/report/real_time_e.html?stn=08ED001,11:59AM Fri 2024-07-26
08ED002,MORICE RIVER NEAR HOUSTON,54.11806,-127.42389,"H= 1.379 (m),  Q= 121 (m3/s)",<1Y,0,=160.8%,100,https://wateroffice.ec.gc.ca/report/real_time_e.html?stn=08ED002,11:59AM Fri 2024-07-26
08ED004,THAUTIL CORNER CREEK NEAR MORICE LAKE,54.25611,-127.34889,"H= 1.208 (m),  Q= 0.013 (m3/s)",<1Y,0,=5.42%,5,https://wateroffice.ec.gc.ca/report/real_time_e.html?stn=08ED004,11:59AM Fri 2024-07-26
08EE003,BULKLEY RIVER NEAR HOUSTON,54.39583,-126.7083,"H= 0.5 (m),  Q= 1.48 (m3/s)",<1Y,0,=7.59%,5,https://wateroffice.ec.gc.ca/report/real_time_e.html?stn=08EE003,11:59AM Fri 2024-07-26
08EE004,BULKLEY RIVER AT QUICK,54.61806,-126.8986,"H= 0.712 (m),  Q= 145 (m3/s)",<1Y,0,=104.21%,100,https://wateroffice.ec.gc.ca/report/real_time_e.html?stn=08EE004,11:59AM Fri 2024-07-26
08EE005,BULKLEY RIVER NEAR SMITHERS,54.78277,-127.13306,"H= 3.383 (m),  Q= 166 (m3/s)",<1Y,0,=92.21%,50,https://wateroffice.ec.gc.ca/report/real_time_e.html?stn=08EE005,11:59AM Fri 2024-07-26
08EE012,SIMPSON CREEK AT THE MOUTH,54.81,-127.2025,"H= 0.405 (m),  Q= 0.172 (m3/s)",<1Y,0,=63.7%,50,https://wateroffice.ec.gc.ca/report/real_time_e.html?stn=08EE012,11:59AM Fri 2024-07-26
08EE013,BUCK CREEK AT THE MOUTH,54.3962,-126.6506,"H= 0.341 (m),  Q= 0.407 (m3/s)",<1Y,0,=9.11%,5,https://wateroffice.ec.gc.ca/report/real_time_e.html?stn=08EE013,11:59AM Fri 2024-07-26
08EE020,TELKWA RIVER BELOW TSAI CREEK,54.60278,-127.495,NO DATA,=NO DATA,-9999,NO DATA,-9999,https://wateroffice.ec.gc.ca/report/real_time_e.html?stn=08EE020,11:59AM Fri 2024-07-26
08EF001,SKEENA RIVER AT USK,54.63055,-128.4319,"H= 4.128 (m),  Q= 1080 (m3/s)",<1Y,0,=118.48%,100,https://wateroffice.ec.gc.ca/report/real_time_e.html?stn=08EF001,11:59AM Fri 2024-07-26
08EF005,ZYMOETZ RIVER ABOVE O.K. CREEK,54.48333,-128.33056,"H= 1.039 (m),  Q= 75.3 (m3/s)",<1Y,0,=71.88%,50,https://wateroffice.ec.gc.ca/report/real_time_e.html?stn=08EF005,11:59AM Fri 2024-07-26
08EF006,M3 CREEK NEAR SMITHERS,54.77778,-127.46806,"H= 3.02 (m),  Q= 0.017 (m3/s)",<1Y,0,=9.44%,5,https://wateroffice.ec.gc.ca/report/real_time_e.html?stn=08EF006,11:59AM Fri 2024-07-26
08EG016,KLOIYA RIVER NEAR PRINCE RUPERT,54.2475,-130.1716,NO DATA,=NO DATA,-9999,NO DATA,-9999,https://wateroffice.ec.gc.ca/report/real_time_e.html?stn=08EG016,11:59AM Fri 2024-07-26
08FA002,WANNOCK RIVER AT OUTLET OF OWIKENO LAKE,51.67917,-127.17917,Q= 399 (m3/s),<1Y,0,=121.89%,100,https://wateroffice.ec.gc.ca/report/real_time_e.html?stn=08FA002,11:59AM Fri 2024-07-26
08FA007,OWIKENO LAKE AT RIVERS INLET,51.69056,-127.1619,H= 2.617 (m),<1Y,0,NO DATA,-9999,https://wateroffice.ec.gc.ca/report/real_time_e.html?stn=08FA007,11:59AM Fri 2024-07-26
08FB004,SALLOOMT RIVER NEAR HAGENSBORG,52.424167,-126.519444,"H= 0.072 (m),  Q= 5.54 (m3/s)",<1Y,0,=62.95%,50,https://wateroffice.ec.gc.ca/report/real_time_e.html?stn=08FB004,11:59AM Fri 2024-07-26
08FB006,ATNARKO RIVER NEAR THE MOUTH,52.36083,-126.0028,"H= 1.179 (m),  Q= 24.2 (m3/s)",<1Y,0,=82.4%,50,https://wateroffice.ec.gc.ca/report/real_time_e.html?stn=08FB006,11:59AM Fri 2024-07-26
08FB011,BELLA COOLA RIVER ABOVE HAMMER CREEK,52.43889,-126.35194,"H= 2.669 (m),  Q= 162 (m3/s)",<1Y,0,=146.59%,100,https://wateroffice.ec.gc.ca/report/real_time_e.html?stn=08FB011,11:59AM Fri 2024-07-26
08FC003,DEAN RIVER BELOW TANSWANKET CREEK,52.88972,-125.7714,"H= 1 (m),  Q= 7.23 (m3/s)",<1Y,0,=39.57%,20,https://wateroffice.ec.gc.ca/report/real_time_e.html?stn=08FC003,11:59AM Fri 2024-07-26
08FE003,KEMANO RIVER ABOVE POWERHOUSE TAILRACE,53.56944,-127.9444,"H= 1.829 (m),  Q= 40.8 (m3/s)",<1Y,0,=88.75%,50,https://wateroffice.ec.gc.ca/report/real_time_e.html?stn=08FE003,11:59AM Fri 2024-07-26
08FF001,KITIMAT RIVER BELOW HIRSCH CREEK,54.05944,-128.6747,"H= 0.845 (m),  Q= 75.4 (m3/s)",<1Y,0,=57.44%,50,https://wateroffice.ec.gc.ca/report/real_time_e.html?stn=08FF001,11:59AM Fri 2024-07-26
08FF002,HIRSCH CREEK NEAR THE MOUTH,54.06333,-128.6,"H= 0.83 (m),  Q= 9.38 (m3/s)",<1Y,0,=43.33%,20,https://wateroffice.ec.gc.ca/report/real_time_e.html?stn=08FF002,11:59AM Fri 2024-07-26
08FF003,LITTLE WEDEENE RIVER BELOW BOWBYES CREEK,54.13639,-128.69,"H= 0.837 (m),  Q= 5.7 (m3/s)",<1Y,0,=32.93%,20,https://wateroffice.ec.gc.ca/report/real_time_e.html?stn=08FF003,11:59AM Fri 2024-07-26
08FF006,RENEGADE CREEK NEAR KITIMAT,53.94889,-128.73611,"H= 1.981 (m),  Q= 0.021 (m3/s)",<1Y,0,=5.38%,5,https://wateroffice.ec.gc.ca/report/real_time_e.html?stn=08FF006,11:59AM Fri 2024-07-26
08GA022,SQUAMISH RIVER NEAR BRACKENDALE,49.79445,-123.2,"H= 3.102 (m),  Q= 248 (m3/s)",<1Y,0,=103.86%,100,https://wateroffice.ec.gc.ca/report/real_time_e.html?stn=08GA022,11:59AM Fri 2024-07-26
08GA030,SEYMOUR RIVER NEAR NORTH VANCOUVER,49.342222,-123.001388,"H= 0.88 (m),  Q= 2.46 (m3/s)",<1Y,0,=15.78%,10,https://wateroffice.ec.gc.ca/report/real_time_e.html?stn=08GA030,11:59AM Fri 2024-07-26
08GA043,CHEAKAMUS RIVER NEAR BRACKENDALE,49.81667,-123.1483,"H= 1.157 (m),  Q= 49.4 (m3/s)",<1Y,0,=140.7%,100,https://wateroffice.ec.gc.ca/report/real_time_e.html?stn=08GA043,11:59AM Fri 2024-07-26
08GA047,ROBERTS CREEK AT ROBERTS CREEK,49.42083,-123.64022,"H= 0.256 (m),  Q= 0.07 (m3/s)",<1Y,0,=6.86%,5,https://wateroffice.ec.gc.ca/report/real_time_e.html?stn=08GA047,11:59AM Fri 2024-07-26
08GA071,ELAHO RIVER NEAR THE MOUTH,50.11945,-123.4361,"H= 3.753 (m),  Q= 120 (m3/s)",<1Y,0,=114.24%,100,https://wateroffice.ec.gc.ca/report/real_time_e.html?stn=08GA071,11:59AM Fri 2024-07-26
08GA072,CHEAKAMUS RIVER ABOVE MILLAR CREEK,50.08,-123.0339,"H= 2.327 (m),  Q= 24.5 (m3/s)",<1Y,0,=124.94%,100,https://wateroffice.ec.gc.ca/report/real_time_e.html?stn=08GA072,11:59AM Fri 2024-07-26
08GA076,STAWAMUS RIVER AT HIGHWAY NO. 99,49.68972,-123.1447,"H= 1.614 (m),  Q= 0.709 (m3/s)",<1Y,0,=18.04%,10,https://wateroffice.ec.gc.ca/report/real_time_e.html?stn=08GA076,11:59AM Fri 2024-07-26
08GA077,SEYMOUR RIVER BELOW ORCHID CREEK,49.52139,-123.0028,"H= 1.82 (m),  Q= 0.93 (m3/s)",<1Y,0,=14.4%,10,https://wateroffice.ec.gc.ca/report/real_time_e.html?stn=08GA077,11:59AM Fri 2024-07-26
08GB013,CLOWHOM RIVER NEAR CLOWHOM LAKE,49.78778,-123.4203,"H= 2.894 (m),  Q= 6.4 (m3/s)",<1Y,0,=41.64%,20,https://wateroffice.ec.gc.ca/report/real_time_e.html?stn=08GB013,11:59AM Fri 2024-07-26
08GB014,HORSESHOE RIVER ABOVE LOIS LAKE,49.873,-124.277133,"H= 2.33 (m),  Q= 2.01 (m3/s)",<1Y,0,=33.44%,20,https://wateroffice.ec.gc.ca/report/real_time_e.html?stn=08GB014,11:59AM Fri 2024-07-26
08GC005,THEODOSIA RIVER DIVERSION ABOVE OLSEN LAKE,50.12917,-124.54056,"H= 9.472 (m),  Q= 1.06 (m3/s)",<1Y,0,=17.43%,10,https://wateroffice.ec.gc.ca/report/real_time_e.html?stn=08GC005,11:59AM Fri 2024-07-26
08GC006,THEODOSIA RIVER DIVERSION BYPASS,50.12833,-124.5425,"H= 6.704 (m),  Q= 0.599 (m3/s)",<1Y,0,=30.41%,20,https://wateroffice.ec.gc.ca/report/real_time_e.html?stn=08GC006,11:59AM Fri 2024-07-26
08GC007,THEODOSIA RIVER BELOW OLSEN LAKE DIVERSION,50.12777,-124.54333,"H= 3.719 (m),  Q= 0.026 (m3/s)",<1Y,0,=2.92%,2,https://wateroffice.ec.gc.ca/report/real_time_e.html?stn=08GC007,11:59AM Fri 2024-07-26
08GC008,THEODOSIA RIVER ABOVE SCOTTY CREEK,50.09722,-124.616,"H= 3.284 (m),  Q= 0.644 (m3/s)",<1Y,0,=13.73%,10,https://wateroffice.ec.gc.ca/report/real_time_e.html?stn=08GC008,11:59AM Fri 2024-07-26
08GD004,HOMATHKO RIVER AT THE MOUTH,50.98472,-124.9169,"H= 15.281 (m),  Q= 465 (m3/s)",<1Y,0,=166.57%,100,https://wateroffice.ec.gc.ca/report/real_time_e.html?stn=08GD004,11:59AM Fri 2024-07-26
08GD008,HOMATHKO RIVER AT INLET TO TATLAYOKO LAKE,51.67444,-124.40611,"H= 2.082 (m),  Q= 1.93 (m3/s)",<1Y,0,=102.66%,100,https://wateroffice.ec.gc.ca/report/real_time_e.html?stn=08GD008,11:59AM Fri 2024-07-26
08GE002,KLINAKLINI RIVER EAST CHANNEL (MAIN) NEAR THE MOUTH,51.15222,-125.5925,"H= 5.245 (m),  Q= 490 (m3/s)",<1Y,0,=163.4%,100,https://wateroffice.ec.gc.ca/report/real_time_e.html?stn=08GE002,11:59AM Fri 2024-07-26
08GE003,ICY CREEK NEAR THE MOUTH,51.22778,-125.66671,"H= 2.971 (m),  Q= 3.52 (m3/s)",<1Y,0,=123.51%,100,https://wateroffice.ec.gc.ca/report/real_time_e.html?stn=08GE003,11:59AM Fri 2024-07-26
08GF007,WAKEMAN RIVER BELOW ATWAYKELLESSE RIVER,51.1029,-126.476,"H= 3.023 (m),  Q= 29 (m3/s)",<1Y,0,=37.11%,20,https://wateroffice.ec.gc.ca/report/real_time_e.html?stn=08GF007,11:59AM Fri 2024-07-26
08GF009,KINGCOME RIVER BELOW ATLATZI RIVER,51.0025,-126.11778,H= 4.467 (m),<1Y,0,NO DATA,-9999,https://wateroffice.ec.gc.ca/report/real_time_e.html?stn=08GF009,11:59AM Fri 2024-07-26
08HA001,CHEMAINUS RIVER NEAR WESTHOLME,48.87917,-123.7019,"H= 0.628 (m),  Q= 0.274 (m3/s)",<1Y,0,=1.46%,1,https://wateroffice.ec.gc.ca/report/real_time_e.html?stn=08HA001,11:59AM Fri 2024-07-26
08HA002,COWICHAN RIVER AT LAKE COWICHAN,48.82611,-124.0519,"H= 0.325 (m),  Q= 7.01 (m3/s)",<1Y,0,=15.65%,10,https://wateroffice.ec.gc.ca/report/real_time_e.html?stn=08HA002,11:59AM Fri 2024-07-26
08HA003,KOKSILAH RIVER AT COWICHAN STATION,48.7275,-123.6697,"H= 0.412 (m),  Q= 0.276 (m3/s)",<1Y,0,=2.91%,2,https://wateroffice.ec.gc.ca/report/real_time_e.html?stn=08HA003,11:59AM Fri 2024-07-26
08HA009,COWICHAN LAKE NEAR LAKE COWICHAN,48.824424,-124.061501,H= 1.208 (m),<1Y,0,NO DATA,-9999,https://wateroffice.ec.gc.ca/report/real_time_e.html?stn=08HA009,11:59AM Fri 2024-07-26
08HA010,SAN JUAN RIVER NEAR PORT RENFREW,48.57611,-124.31111,"H= 1.944 (m),  Q= 1.31 (m3/s)",<1Y,0,=2.75%,2,https://wateroffice.ec.gc.ca/report/real_time_e.html?stn=08HA010,11:59AM Fri 2024-07-26
08HA011,COWICHAN RIVER NEAR DUNCAN,48.77278,-123.7122,"H= 0.232 (m),  Q= 5.13 (m3/s)",<1Y,0,=9.71%,5,https://wateroffice.ec.gc.ca/report/real_time_e.html?stn=08HA011,11:59AM Fri 2024-07-26
08HA016,BINGS CREEK NEAR THE MOUTH,48.78944,-123.72444,"H= 1.377 (m),  Q= 0.013 (m3/s)",<1Y,0,=2.83%,2,https://wateroffice.ec.gc.ca/report/real_time_e.html?stn=08HA016,11:59AM Fri 2024-07-26
08HA068,GARBAGE CREEK NEAR THE MOUTH,48.57833,-124.10444,"H= 0.308 (m),  Q= 0.011 (m3/s)",<1Y,0,=5.5%,5,https://wateroffice.ec.gc.ca/report/real_time_e.html?stn=08HA068,11:59AM Fri 2024-07-26
08HA069,RENFREW CREEK NEAR PORT RENFREW,48.63694,-124.29194,"H= 1.128 (m),  Q= 0.034 (m3/s)",<1Y,0,=2.17%,2,https://wateroffice.ec.gc.ca/report/real_time_e.html?stn=08HA069,11:59AM Fri 2024-07-26
08HA070,HARRIS CREEK NEAR LAKE COWICHAN,48.71833,-124.2261,"H= 1.28 (m),  Q= 0.067 (m3/s)",<1Y,0,=2.32%,2,https://wateroffice.ec.gc.ca/report/real_time_e.html?stn=08HA070,11:59AM Fri 2024-07-26
08HA072,COTTONWOOD CREEK HEADWATERS,48.93389,-124.25,"H= 0.647 (m),  Q= 0.03 (m3/s)",<1Y,0,=4.41%,2,https://wateroffice.ec.gc.ca/report/real_time_e.html?stn=08HA072,11:59AM Fri 2024-07-26
08HB002,ENGLISHMAN RIVER NEAR PARKSVILLE,49.31667,-124.2828,"H= 0.892 (m),  Q= 1.26 (m3/s)",<1Y,0,=9.69%,5,https://wateroffice.ec.gc.ca/report/real_time_e.html?stn=08HB002,11:59AM Fri 2024-07-26
08HB008,SPROAT RIVER NEAR ALBERNI,49.28972,-124.91028,"H= 0.639 (m),  Q= 2.65 (m3/s)",<1Y,0,=6.98%,5,https://wateroffice.ec.gc.ca/report/real_time_e.html?stn=08HB008,11:59AM Fri 2024-07-26
08HB011,TSOLUM RIVER NEAR COURTENAY,49.70722,-125.0114,"H= 0.473 (m),  Q= 0.437 (m3/s)",<1Y,0,=4.13%,2,https://wateroffice.ec.gc.ca/report/real_time_e.html?stn=08HB011,11:59AM Fri 2024-07-26
08HB014,SARITA RIVER NEAR BAMFIELD,48.89278,-124.965,"H= 1.391 (m),  Q= 0.85 (m3/s)",<1Y,0,=4.33%,2,https://wateroffice.ec.gc.ca/report/real_time_e.html?stn=08HB014,11:59AM Fri 2024-07-26
08HB022,NILE CREEK NEAR BOWSER,49.41889,-124.64222,NO DATA,=NO DATA,-9999,NO DATA,-9999,https://wateroffice.ec.gc.ca/report/real_time_e.html?stn=08HB022,11:59AM Fri 2024-07-26
08HB023,ASH RIVER BELOW MORAN CREEK,49.36944,-124.98278,"H= 0.578 (m),  Q= 4.52 (m3/s)",<1Y,0,=26.86%,20,https://wateroffice.ec.gc.ca/report/real_time_e.html?stn=08HB023,11:59AM Fri 2024-07-26
08HB025,BROWNS RIVER NEAR COURTENAY,49.69206,-125.06983,"H= 5.793 (m),  Q= 0.208 (m3/s)",<1Y,0,=3.8%,2,https://wateroffice.ec.gc.ca/report/real_time_e.html?stn=08HB025,11:59AM Fri 2024-07-26
08HB029,LITTLE QUALICUM RIVER NEAR QUALICUM BEACH,49.35469,-124.48414,"H= 4.799 (m),  Q= 2.18 (m3/s)",<1Y,0,=18.54%,10,https://wateroffice.ec.gc.ca/report/real_time_e.html?stn=08HB029,11:59AM Fri 2024-07-26
08HB032,MILLSTONE RIVER AT NANAIMO,49.17739,-123.96903,"H= 1.206 (m),  Q= 0.085 (m3/s)",<1Y,0,=3.37%,2,https://wateroffice.ec.gc.ca/report/real_time_e.html?stn=08HB032,11:59AM Fri 2024-07-26
08HB034,NANAIMO RIVER NEAR CASSIDY,49.06861,-123.8869,"H= 0.653 (m),  Q= 4.35 (m3/s)",<1Y,0,=10.97%,10,https://wateroffice.ec.gc.ca/report/real_time_e.html?stn=08HB034,11:59AM Fri 2024-07-26
08HB048,CARNATION CREEK AT THE MOUTH,48.91555,-124.9978,"H= 0.059 (m),  Q= 0.021 (m3/s)",<1Y,0,=2.59%,2,https://wateroffice.ec.gc.ca/report/real_time_e.html?stn=08HB048,11:59AM Fri 2024-07-26
08HB074,CRUICKSHANK RIVER NEAR THE MOUTH,49.57878,-125.21403,"H= 4.157 (m),  Q= 4.5 (m3/s)",<1Y,0,=25.34%,20,https://wateroffice.ec.gc.ca/report/real_time_e.html?stn=08HB074,11:59AM Fri 2024-07-26
08HB082,COMOX LAKE NEAR COURTENAY,49.64417,-125.08944,H= 134.152 (m),<1Y,0,NO DATA,-9999,https://wateroffice.ec.gc.ca/report/real_time_e.html?stn=08HB082,11:59AM Fri 2024-07-26
08HB083,Courtenay River at 5th Ave Bridge,49.69083,-124.99444,H= 1.665 (m),<1Y,0,NO DATA,-9999,https://wateroffice.ec.gc.ca/report/real_time_e.html?stn=08HB083,11:59AM Fri 2024-07-26
08HB086,TOFINO CREEK NEAR THE MOUTH,49.24944,-125.5806,"H= 1.127 (m),  Q= 0.136 (m3/s)",<1Y,0,=1.99%,1,https://wateroffice.ec.gc.ca/report/real_time_e.html?stn=08HB086,11:59AM Fri 2024-07-26
08HB087,COMOX HARBOUR AT GOOSE SPIT,49.66389,-124.91556,H= 4.722 (m),<1Y,0,NO DATA,-9999,https://wateroffice.ec.gc.ca/report/real_time_e.html?stn=08HB087,11:59AM Fri 2024-07-26
08HB089,TSOLUM RIVER BELOW MUREX CREEK,49.80881,-125.19503,NO DATA,=NO DATA,-9999,NO DATA,-9999,https://wateroffice.ec.gc.ca/report/real_time_e.html?stn=08HB089,11:59AM Fri 2024-07-26
08HC001,GOLD RIVER BELOW UCONA RIVER,49.70583,-126.1061,"H= 0.646 (m),  Q= 7 (m3/s)",<1Y,0,=8.2%,5,https://wateroffice.ec.gc.ca/report/real_time_e.html?stn=08HC001,11:59AM Fri 2024-07-26
08HC005,HEBER RIVER NEAR GOLD RIVER,49.81528,-125.9864,NO DATA,=NO DATA,-9999,NO DATA,-9999,https://wateroffice.ec.gc.ca/report/real_time_e.html?stn=08HC005,11:59AM Fri 2024-07-26
08HC006,CREST LAKE NEAR HIGHWAY 28,49.84111,-125.905,"H= 0.908 (m),  Q= 0.073 (m3/s)",<1Y,0,=5.07%,5,https://wateroffice.ec.gc.ca/report/real_time_e.html?stn=08HC006,11:59AM Fri 2024-07-26
08HD005,QUINSAM RIVER NEAR CAMPBELL RIVER,50.02917,-125.2986,"H= 0.732 (m),  Q= 2.09 (m3/s)",<1Y,0,=24.42%,20,https://wateroffice.ec.gc.ca/report/real_time_e.html?stn=08HD005,11:59AM Fri 2024-07-26
08HD006,SALMON RIVER NEAR SAYWARD,50.30667,-125.8972,"H= 6.398 (m),  Q= 6.35 (m3/s)",<1Y,0,=9.86%,5,https://wateroffice.ec.gc.ca/report/real_time_e.html?stn=08HD006,11:59AM Fri 2024-07-26
08HD007,SALMON RIVER ABOVE MEMEKAY RIVER,50.19889,-125.74583,"H= 0.405 (m),  Q= 1.35 (m3/s)",<1Y,0,=9.29%,5,https://wateroffice.ec.gc.ca/report/real_time_e.html?stn=08HD007,11:59AM Fri 2024-07-26
08HD011,OYSTER RIVER BELOW WOODHUS CREEK,49.89389,-125.2383,"H= 0.911 (m),  Q= 2.14 (m3/s)",<1Y,0,=15.56%,10,https://wateroffice.ec.gc.ca/report/real_time_e.html?stn=08HD011,11:59AM Fri 2024-07-26
08HD015,SALMON RIVER ABOVE CAMPBELL LAKE DIVERSION,50.09167,-125.6722,NO DATA,=NO DATA,-9999,NO DATA,-9999,https://wateroffice.ec.gc.ca/report/real_time_e.html?stn=08HD015,11:59AM Fri 2024-07-26
08HD018,ELK RIVER ABOVE CAMPBELL LAKE,49.85556,-125.805,"H= 4.427 (m),  Q= 2.97 (m3/s)",<1Y,0,=27.99%,20,https://wateroffice.ec.gc.ca/report/real_time_e.html?stn=08HD018,11:59AM Fri 2024-07-26
08HD020,SALMON RIVER DIVERSION NEAR CAMPBELL RIVER,50.09583,-125.66667,NO DATA,=NO DATA,-9999,NO DATA,-9999,https://wateroffice.ec.gc.ca/report/real_time_e.html?stn=08HD020,11:59AM Fri 2024-07-26
08HD021,QUINSAM RIVER AT ARGONAUT BRIDGE,49.93139,-125.5092,"H= 0.512 (m),  Q= 0.892 (m3/s)",<1Y,0,=42.48%,20,https://wateroffice.ec.gc.ca/report/real_time_e.html?stn=08HD021,11:59AM Fri 2024-07-26
08HD023,LITTLE OYSTER RIVER AT YORKE ROAD,49.88417,-125.18917,"H= 0.496 (m),  Q= 0.042 (m3/s)",<1Y,0,=6%,5,https://wateroffice.ec.gc.ca/report/real_time_e.html?stn=08HD023,11:59AM Fri 2024-07-26
08HD025,WOKAS LAKE NEAR CAMPBELL RIVER,49.91028,-125.54639,H= 3.749 (m),<1Y,0,NO DATA,-9999,https://wateroffice.ec.gc.ca/report/real_time_e.html?stn=08HD025,11:59AM Fri 2024-07-26
08HD026,QUINSAM DIVERSION NEAR CAMPBELL RIVER,49.94333,-125.50806,"H= 1.013 (m),  Q= 0.004 (m3/s)",<1Y,0,=0.44%,0,https://wateroffice.ec.gc.ca/report/real_time_e.html?stn=08HD026,11:59AM Fri 2024-07-26
08HD027,QUINSAM RIVER BELOW LOWER QUINSAM LAKE,49.92972,-125.33778,"H= 2.228 (m),  Q= 1.01 (m3/s)",<1Y,0,=15.76%,10,https://wateroffice.ec.gc.ca/report/real_time_e.html?stn=08HD027,11:59AM Fri 2024-07-26
08HD031,UPPER CAMPBELL LAKE AT STRATHCONA DAM,49.99694,-125.58667,H= 217.804 (m),<1Y,0,NO DATA,-9999,https://wateroffice.ec.gc.ca/report/real_time_e.html?stn=08HD031,11:59AM Fri 2024-07-26
08HD032,SALMON RIVER BELOW CAMPBELL LAKE DIVERSION,50.09375,-125.66917,NO DATA,=NO DATA,-9999,NO DATA,-9999,https://wateroffice.ec.gc.ca/report/real_time_e.html?stn=08HD032,11:59AM Fri 2024-07-26
08HD033,BUTTLE LAKE ABOVE UPPER CAMPBELL LAKE,49.83575,-125.61606,H= 217.775 (m),<1Y,0,NO DATA,-9999,https://wateroffice.ec.gc.ca/report/real_time_e.html?stn=08HD033,11:59AM Fri 2024-07-26
08HE006,ZEBALLOS RIVER NEAR ZEBALLOS,50.01444,-126.8425,"H= 1.506 (m),  Q= 3.45 (m3/s)",<1Y,0,=13.55%,10,https://wateroffice.ec.gc.ca/report/real_time_e.html?stn=08HE006,11:59AM Fri 2024-07-26
08HE008,ZEBALLOS RIVER AT MOOK PEAK,50.13694,-126.81917,"H= 1.473 (m),  Q= 0.041 (m3/s)",<1Y,0,=3.33%,2,https://wateroffice.ec.gc.ca/report/real_time_e.html?stn=08HE008,11:59AM Fri 2024-07-26
08HE009,KLASKISH RIVER NEAR KLASKINO INLET,50.295,-127.68833,"H= 3.614 (m),  Q= 0.319 (m3/s)",<1Y,0,=4.74%,2,https://wateroffice.ec.gc.ca/report/real_time_e.html?stn=08HE009,11:59AM Fri 2024-07-26
08HF006,SAN JOSEF RIVER BELOW SHARP CREEK,50.66972,-128.16417,"H= 2.231 (m),  Q= 0.716 (m3/s)",<1Y,0,=9.72%,5,https://wateroffice.ec.gc.ca/report/real_time_e.html?stn=08HF006,11:59AM Fri 2024-07-26
08HF012,PUGH CREEK NEAR NAHWITTI LAKE,50.735,-127.8831,"H= 4.04 (m),  Q= 0.02 (m3/s)",<1Y,0,=0.92%,0,https://wateroffice.ec.gc.ca/report/real_time_e.html?stn=08HF012,11:59AM Fri 2024-07-26
08HF013,SIMPSON CREEK NEAR KOPRINO HARBOUR,50.51194,-127.84306,"H= 0.501 (m),  Q= 0.08 (m3/s)",<1Y,0,=5.84%,5,https://wateroffice.ec.gc.ca/report/real_time_e.html?stn=08HF013,11:59AM Fri 2024-07-26
08JA017,NECHAKO RIVER BELOW CHESLATTA FALLS,53.68389,-124.8356,"H= 1.776 (m),  Q= 269 (m3/s)",=1-2Y,1,=363.76%,100,https://wateroffice.ec.gc.ca/report/real_time_e.html?stn=08JA017,11:59AM Fri 2024-07-26
08JA023,NECHAKO RESERVOIR AT SKINS LAKE SPILLWAY,53.77195,-125.9964,H= 9.931 (m),<1Y,0,NO DATA,-9999,https://wateroffice.ec.gc.ca/report/real_time_e.html?stn=08JA023,11:59AM Fri 2024-07-26
08JB002,STELLAKO RIVER AT GLENANNAN,54.00917,-125.005,"H= 1.963 (m),  Q= 14.2 (m3/s)",<1Y,0,=68.2%,50,https://wateroffice.ec.gc.ca/report/real_time_e.html?stn=08JB002,11:59AM Fri 2024-07-26
08JB003,NAUTLEY RIVER NEAR FORT FRASER,54.08528,-124.5994,"H= 1.411 (m),  Q= 18.1 (m3/s)",<1Y,0,=57.13%,50,https://wateroffice.ec.gc.ca/report/real_time_e.html?stn=08JB003,11:59AM Fri 2024-07-26
08JB007,NADINA LAKE NEAR NORALEE,53.90417,-126.97083,H= 0.751 (m),<1Y,0,NO DATA,-9999,https://wateroffice.ec.gc.ca/report/real_time_e.html?stn=08JB007,11:59AM Fri 2024-07-26
08JB008,NADINA RIVER AT OUTLET OF NADINA LAKE,53.90222,-126.95361,"H= 1.097 (m),  Q= 3.16 (m3/s)",<1Y,0,=52.75%,50,https://wateroffice.ec.gc.ca/report/real_time_e.html?stn=08JB008,11:59AM Fri 2024-07-26
08JB013,NORTH BEACH CREEK ABOVE ALLIN CREEK,54.12667,-125.92722,"H= 2.757 (m),  Q= 0.004 (m3/s)",<1Y,0,=5%,5,https://wateroffice.ec.gc.ca/report/real_time_e.html?stn=08JB013,11:59AM Fri 2024-07-26
08JC001,NECHAKO RIVER AT VANDERHOOF,54.02611,-124.0078,"H= 3.544 (m),  Q= 307 (m3/s)",=1-2Y,1,=217.04%,100,https://wateroffice.ec.gc.ca/report/real_time_e.html?stn=08JC001,11:59AM Fri 2024-07-26
08JC002,NECHAKO RIVER AT ISLE PIERRE,53.96028,-123.2336,"H= 3.11 (m),  Q= 432 (m3/s)",=1-2Y,1,=155.01%,100,https://wateroffice.ec.gc.ca/report/real_time_e.html?stn=08JC002,11:59AM Fri 2024-07-26
08JD006,DRIFTWOOD RIVER ABOVE KASTBERG CREEK,55.97611,-126.6761,"H= 1.673 (m),  Q= 4.73 (m3/s)",<1Y,0,=57.61%,50,https://wateroffice.ec.gc.ca/report/real_time_e.html?stn=08JD006,11:59AM Fri 2024-07-26
08JE001,STUART RIVER NEAR FORT ST. JAMES,54.41639,-124.26889,"H= 1.584 (m),  Q= 138 (m3/s)",<1Y,0,=107.11%,100,https://wateroffice.ec.gc.ca/report/real_time_e.html?stn=08JE001,11:59AM Fri 2024-07-26
08KA001,DORE RIVER NEAR MCBRIDE,53.31056,-120.2458,"H= 1.432 (m),  Q= 16.8 (m3/s)",<1Y,0,=115.78%,100,https://wateroffice.ec.gc.ca/report/real_time_e.html?stn=08KA001,11:59AM Fri 2024-07-26
08KA004,FRASER RIVER AT HANSARD,54.07861,-121.8478,"H= 3.566 (m),  Q= 655 (m3/s)",<1Y,0,=142.24%,100,https://wateroffice.ec.gc.ca/report/real_time_e.html?stn=08KA004,11:59AM Fri 2024-07-26
08KA005,FRASER RIVER AT MCBRIDE,53.28611,-120.1128,"H= 5.14 (m),  Q= 371 (m3/s)",<1Y,0,=185.25%,100,https://wateroffice.ec.gc.ca/report/real_time_e.html?stn=08KA005,11:59AM Fri 2024-07-26
08KA007,FRASER RIVER AT RED PASS,52.98195,-119.0042,"H= 2.771 (m),  Q= 63.6 (m3/s)",<1Y,0,=139.96%,100,https://wateroffice.ec.gc.ca/report/real_time_e.html?stn=08KA007,11:59AM Fri 2024-07-26
08KA009,MCKALE RIVER NEAR 940M CONTOUR,53.44472,-120.21944,"H= 1.757 (m),  Q= 8.77 (m3/s)",<1Y,0,=106.56%,100,https://wateroffice.ec.gc.ca/report/real_time_e.html?stn=08KA009,11:59AM Fri 2024-07-26
08KA013,MORKILL RIVER BELOW HELLROARING CREEK,53.68222,-120.58972,"H= 1.818 (m),  Q= 40.5 (m3/s)",<1Y,0,=105.17%,100,https://wateroffice.ec.gc.ca/report/real_time_e.html?stn=08KA013,11:59AM Fri 2024-07-26
08KB001,FRASER RIVER AT SHELLEY,54.01111,-122.6167,"H= 3.238 (m),  Q= 929 (m3/s)",<1Y,0,=113.63%,100,https://wateroffice.ec.gc.ca/report/real_time_e.html?stn=08KB001,11:59AM Fri 2024-07-26
08KB003,MCGREGOR RIVER AT LOWER CANYON,54.23222,-121.6667,"H= 1.932 (m),  Q= 261 (m3/s)",<1Y,0,=120.67%,100,https://wateroffice.ec.gc.ca/report/real_time_e.html?stn=08KB003,11:59AM Fri 2024-07-26
08KC001,SALMON RIVER NEAR PRINCE GEORGE,54.0961,-122.6781,"H= 0.927 (m),  Q= 4.37 (m3/s)",<1Y,0,=14.9%,10,https://wateroffice.ec.gc.ca/report/real_time_e.html?stn=08KC001,11:59AM Fri 2024-07-26
08KD007,BOWRON RIVER BELOW BOX CANYON,54.00222,-122.12833,"H= 3.795 (m),  Q= 34.3 (m3/s)",<1Y,0,=52.68%,50,https://wateroffice.ec.gc.ca/report/real_time_e.html?stn=08KD007,11:59AM Fri 2024-07-26
08KE016,BAKER CREEK AT QUESNEL,52.97306,-122.51972,"H= 1.463 (m),  Q= 0.883 (m3/s)",<1Y,0,=16.82%,10,https://wateroffice.ec.gc.ca/report/real_time_e.html?stn=08KE016,11:59AM Fri 2024-07-26
08KE018,FRASER RIVER AT SOUTH FORT GEORGE,53.90111,-122.7333,H= 5.688 (m),<1Y,0,NO DATA,-9999,https://wateroffice.ec.gc.ca/report/real_time_e.html?stn=08KE018,11:59AM Fri 2024-07-26
08KE024,LITTLE SWIFT RIVER AT THE MOUTH,52.9175,-121.76167,"H= 1.212 (m),  Q= 1.35 (m3/s)",<1Y,0,=47.87%,20,https://wateroffice.ec.gc.ca/report/real_time_e.html?stn=08KE024,11:59AM Fri 2024-07-26
08KG001,WEST ROAD RIVER NEAR CINEMA,53.31111,-122.8875,"H= -0.449 (m),  Q= 35.3 (m3/s)",<1Y,0,=86.5%,50,https://wateroffice.ec.gc.ca/report/real_time_e.html?stn=08KG001,11:59AM Fri 2024-07-26
08KH001,QUESNEL RIVER AT LIKELY,52.61555,-121.5711,Q= 204 (m3/s),<1Y,0,=155.95%,100,https://wateroffice.ec.gc.ca/report/real_time_e.html?stn=08KH001,11:59AM Fri 2024-07-26
08KH006,QUESNEL RIVER NEAR QUESNEL,52.84361,-122.2236,"H= 2.706 (m),  Q= 334 (m3/s)",<1Y,0,=137.81%,100,https://wateroffice.ec.gc.ca/report/real_time_e.html?stn=08KH006,11:59AM Fri 2024-07-26
08KH010,HORSEFLY RIVER ABOVE MCKINLEY CREEK,52.28972,-121.0603,"H= 0.433 (m),  Q= 17.5 (m3/s)",<1Y,0,=88.83%,50,https://wateroffice.ec.gc.ca/report/real_time_e.html?stn=08KH010,11:59AM Fri 2024-07-26
08KH011,QUESNEL LAKE NEAR LIKELY,52.57528,-121.5394,H= 1.373 (m),<1Y,0,NO DATA,-9999,https://wateroffice.ec.gc.ca/report/real_time_e.html?stn=08KH011,11:59AM Fri 2024-07-26
08KH030,PENFOLD CREEK NEAR THE MOUTH,52.79139,-120.7483,"H= 3.49 (m),  Q= 6.48 (m3/s)",<1Y,0,=92.31%,50,https://wateroffice.ec.gc.ca/report/real_time_e.html?stn=08KH030,11:59AM Fri 2024-07-26
08LA001,CLEARWATER RIVER NEAR CLEARWATER STATION,51.65556,-120.0653,"H= 3.419 (m),  Q= 309 (m3/s)",<1Y,0,=137.76%,100,https://wateroffice.ec.gc.ca/report/real_time_e.html?stn=08LA001,11:59AM Fri 2024-07-26
08LB020,BARRIERE RIVER AT THE MOUTH,51.18,-120.1306,"H= 2.679 (m),  Q= 4.37 (m3/s)",<1Y,0,=29.87%,20,https://wateroffice.ec.gc.ca/report/real_time_e.html?stn=08LB020,11:59AM Fri 2024-07-26
08LB038,BLUE RIVER NEAR BLUE RIVER,52.11666,-119.3014,"H= 0.881 (m),  Q= 5.94 (m3/s)",<1Y,0,=55.15%,50,https://wateroffice.ec.gc.ca/report/real_time_e.html?stn=08LB038,11:59AM Fri 2024-07-26
08LB047,NORTH THOMPSON RIVER AT BIRCH ISLAND,51.60278,-119.9153,"H= 1.387 (m),  Q= 181 (m3/s)",<1Y,0,=118.48%,100,https://wateroffice.ec.gc.ca/report/real_time_e.html?stn=08LB047,11:59AM Fri 2024-07-26
08LB064,NORTH THOMPSON RIVER AT MCLURE,51.04139,-120.2411,"H= 2.031 (m),  Q= 542 (m3/s)",<1Y,0,=125.98%,100,https://wateroffice.ec.gc.ca/report/real_time_e.html?stn=08LB064,11:59AM Fri 2024-07-26
08LC002,SHUSWAP RIVER NEAR ENDERBY,50.54583,-119.0131,"H= 2.453 (m),  Q= 84.1 (m3/s)",<1Y,0,=93.28%,50,https://wateroffice.ec.gc.ca/report/real_time_e.html?stn=08LC002,11:59AM Fri 2024-07-26
08LC003,SHUSWAP RIVER NEAR LUMBY,50.30333,-118.8167,"H= 3.848 (m),  Q= 40.2 (m3/s)",<1Y,0,=79.62%,50,https://wateroffice.ec.gc.ca/report/real_time_e.html?stn=08LC003,11:59AM Fri 2024-07-26
08LC018,SHUSWAP RIVER AT OUTLET OF SUGAR LAKE RESERVOIR,50.345,-118.5467,"H= 2.103 (m),  Q= 32.1 (m3/s)",<1Y,0,=82.5%,50,https://wateroffice.ec.gc.ca/report/real_time_e.html?stn=08LC018,11:59AM Fri 2024-07-26
08LC041,SUGAR LAKE RESERVOIR AT THE OUTLET,50.35778,-118.53694,H= 8.919 (m),<1Y,0,NO DATA,-9999,https://wateroffice.ec.gc.ca/report/real_time_e.html?stn=08LC041,11:59AM Fri 2024-07-26
08LD001,ADAMS RIVER NEAR SQUILAX,50.93833,-119.65444,Q= 112 (m3/s),<1Y,0,=156.08%,100,https://wateroffice.ec.gc.ca/report/real_time_e.html?stn=08LD001,11:59AM Fri 2024-07-26
08LE020,SALMON RIVER AT FALKLAND,50.49861,-119.5583,"H= 0.528 (m),  Q= 0.55 (m3/s)",<1Y,0,=18.27%,10,https://wateroffice.ec.gc.ca/report/real_time_e.html?stn=08LE020,11:59AM Fri 2024-07-26
08LE021,SALMON RIVER NEAR SALMON ARM,50.69305,-119.3278,"H= -0.264 (m),  Q= 0.752 (m3/s)",<1Y,0,=14.52%,10,https://wateroffice.ec.gc.ca/report/real_time_e.html?stn=08LE021,11:59AM Fri 2024-07-26
08LE024,EAGLE RIVER NEAR MALAKWA,50.93639,-118.7997,"H= 1.494 (m),  Q= 26.2 (m3/s)",<1Y,0,=68.51%,50,https://wateroffice.ec.gc.ca/report/real_time_e.html?stn=08LE024,11:59AM Fri 2024-07-26
08LE027,SEYMOUR RIVER NEAR SEYMOUR ARM,51.2625,-118.9467,"H= 0.962 (m),  Q= 27.8 (m3/s)",<1Y,0,=74.33%,50,https://wateroffice.ec.gc.ca/report/real_time_e.html?stn=08LE027,11:59AM Fri 2024-07-26
08LE031,SOUTH THOMPSON RIVER AT CHASE,50.765,-119.7403,"H= 3.059 (m),  Q= 477 (m3/s)",<1Y,0,=159.29%,100,https://wateroffice.ec.gc.ca/report/real_time_e.html?stn=08LE031,11:59AM Fri 2024-07-26
08LE070,SHUSWAP LAKE AT SALMON ARM,50.75472,-119.22861,H= 346.637 (m),<1Y,0,NO DATA,-9999,https://wateroffice.ec.gc.ca/report/real_time_e.html?stn=08LE070,11:59AM Fri 2024-07-26
08LE112,CHASE CREEK ABOVE THE MOUTH,50.82056,-119.6803,"H= 0.507 (m),  Q= 0.105 (m3/s)",<1Y,0,=6.52%,5,https://wateroffice.ec.gc.ca/report/real_time_e.html?stn=08LE112,11:59AM Fri 2024-07-26
08LF002,BONAPARTE RIVER BELOW CACHE CREEK,50.80305,-121.3233,"H= 1.464 (m),  Q= 2.87 (m3/s)",<1Y,0,=46.82%,20,https://wateroffice.ec.gc.ca/report/real_time_e.html?stn=08LF002,11:59AM Fri 2024-07-26
08LF023,THOMPSON RIVER AT KAMLOOPS,50.68139,-120.3489,H= 4.121 (m),<1Y,0,NO DATA,-9999,https://wateroffice.ec.gc.ca/report/real_time_e.html?stn=08LF023,11:59AM Fri 2024-07-26
08LF051,THOMPSON RIVER NEAR SPENCES BRIDGE,50.35695,-121.3939,"H= 3.55 (m),  Q= 1020 (m3/s)",<1Y,0,=131.1%,100,https://wateroffice.ec.gc.ca/report/real_time_e.html?stn=08LF051,11:59AM Fri 2024-07-26
08LG006,NICOLA RIVER NEAR SPENCES BRIDGE,50.32972,-121.2256,NO DATA,=NO DATA,-9999,NO DATA,-9999,https://wateroffice.ec.gc.ca/report/real_time_e.html?stn=08LG006,11:59AM Fri 2024-07-26
08LG010,COLDWATER RIVER NEAR MERRITT,50.109722,-120.802777,"H= 1.029 (m),  Q= 1.69 (m3/s)",<1Y,0,=20.05%,20,https://wateroffice.ec.gc.ca/report/real_time_e.html?stn=08LG010,11:59AM Fri 2024-07-26
08LG016,PENNASK CREEK NEAR QUILCHENA,49.97417,-120.13472,"H= 0.427 (m),  Q= 0.191 (m3/s)",<1Y,0,=22.21%,20,https://wateroffice.ec.gc.ca/report/real_time_e.html?stn=08LG016,11:59AM Fri 2024-07-26
08LG046,NICOLA LAKE NEAR QUILCHENA,50.16111,-120.6611,H= 2.91 (m),<1Y,0,NO DATA,-9999,https://wateroffice.ec.gc.ca/report/real_time_e.html?stn=08LG046,11:59AM Fri 2024-07-26
08LG048,COLDWATER RIVER NEAR BROOKMERE,49.85555,-120.9075,"H= 2.431 (m),  Q= 1.29 (m3/s)",<1Y,0,=19.03%,10,https://wateroffice.ec.gc.ca/report/real_time_e.html?stn=08LG048,11:59AM Fri 2024-07-26
08LG049,NICOLA RIVER ABOVE NICOLA LAKE,50.19222,-120.4078,NO DATA,=NO DATA,-9999,NO DATA,-9999,https://wateroffice.ec.gc.ca/report/real_time_e.html?stn=08LG049,11:59AM Fri 2024-07-26
08LG065,NICOLA RIVER AT OUTLET OF NICOLA LAKE,50.16444,-120.6642,"H= 1.26 (m),  Q= 3.07 (m3/s)",<1Y,0,=58.03%,50,https://wateroffice.ec.gc.ca/report/real_time_e.html?stn=08LG065,11:59AM Fri 2024-07-26
08MA001,CHILKO RIVER NEAR REDSTONE,52.07,-123.54,"H= 1.964 (m),  Q= 211 (m3/s)",<1Y,0,=224.06%,100,https://wateroffice.ec.gc.ca/report/real_time_e.html?stn=08MA001,11:59AM Fri 2024-07-26
08MA002,CHILKO RIVER AT OUTLET OF CHILKO LAKE,51.62528,-124.1419,"H= 1.45 (m),  Q= 87.8 (m3/s)",<1Y,0,=188.09%,100,https://wateroffice.ec.gc.ca/report/real_time_e.html?stn=08MA002,11:59AM Fri 2024-07-26
08MA003,TASEKO RIVER AT OUTLET OF TASEKO LAKES,51.37944,-123.6306,"H= 2.332 (m),  Q= 86.4 (m3/s)",<1Y,0,=227.07%,100,https://wateroffice.ec.gc.ca/report/real_time_e.html?stn=08MA003,11:59AM Fri 2024-07-26
08MB007,BIG CREEK BELOW GRAVEYARD CREEK,51.26028,-123.0925,"H= 0.883 (m),  Q= 3.07 (m3/s)",<1Y,0,=112.45%,100,https://wateroffice.ec.gc.ca/report/real_time_e.html?stn=08MB007,11:59AM Fri 2024-07-26
08MC018,FRASER RIVER NEAR MARGUERITE,52.53,-122.4422,"H= 4.094 (m),  Q= 1860 (m3/s)",<1Y,0,=127.67%,100,https://wateroffice.ec.gc.ca/report/real_time_e.html?stn=08MC018,11:59AM Fri 2024-07-26
08MC040,SAN JOSE RIVER ABOVE BORLAND CREEK,52.07694,-121.99083,"H= 1.896 (m),  Q= 0.363 (m3/s)",<1Y,0,=26.5%,20,https://wateroffice.ec.gc.ca/report/real_time_e.html?stn=08MC040,11:59AM Fri 2024-07-26
08ME002,CAYOOSH CREEK NEAR LILLOOET,50.66945,-121.9639,"H= 1.066 (m),  Q= 3.02 (m3/s)",<1Y,0,=21.96%,20,https://wateroffice.ec.gc.ca/report/real_time_e.html?stn=08ME002,11:59AM Fri 2024-07-26
08ME003,SETON RIVER NEAR LILLOOET,50.67222,-121.96944,"H= 1.33 (m),  Q= 30 (m3/s)",=1-2Y,1,=122%,100,https://wateroffice.ec.gc.ca/report/real_time_e.html?stn=08ME003,11:59AM Fri 2024-07-26
08ME023,BRIDGE RIVER (SOUTH BRANCH) BELOW BRIDGE GLACIER,50.85611,-123.4503,"H= 1.413 (m),  Q= 33.8 (m3/s)",<1Y,0,=261.41%,100,https://wateroffice.ec.gc.ca/report/real_time_e.html?stn=08ME023,11:59AM Fri 2024-07-26
08ME027,HURLEY RIVER BELOW LONE GOAT CREEK,50.72972,-122.9375,NO DATA,=NO DATA,-9999,NO DATA,-9999,https://wateroffice.ec.gc.ca/report/real_time_e.html?stn=08ME027,11:59AM Fri 2024-07-26
08ME028,BRIDGE RIVER ABOVE DOWNTON LAKE,50.82139,-123.20167,"H= 1.344 (m),  Q= 64.8 (m3/s)",<1Y,0,=176.33%,100,https://wateroffice.ec.gc.ca/report/real_time_e.html?stn=08ME028,11:59AM Fri 2024-07-26
08MF005,FRASER RIVER AT HOPE,49.38055,-121.4514,"H= 5.352 (m),  Q= 3220 (m3/s)",<1Y,0,=118.36%,100,https://wateroffice.ec.gc.ca/report/real_time_e.html?stn=08MF005,11:59AM Fri 2024-07-26
08MF035,FRASER RIVER NEAR AGASSIZ,49.20369,-121.77583,H= 13.613 (m),<1Y,0,NO DATA,-9999,https://wateroffice.ec.gc.ca/report/real_time_e.html?stn=08MF035,11:59AM Fri 2024-07-26
08MF038,FRASER RIVER AT CANNOR,49.14306,-122.06417,H= 3.39 (m),<1Y,0,NO DATA,-9999,https://wateroffice.ec.gc.ca/report/real_time_e.html?stn=08MF038,11:59AM Fri 2024-07-26
08MF040,FRASER RIVER ABOVE TEXAS CREEK,50.61389,-121.8528,NO DATA,=NO DATA,-9999,NO DATA,-9999,https://wateroffice.ec.gc.ca/report/real_time_e.html?stn=08MF040,11:59AM Fri 2024-07-26
08MF065,NAHATLATCH RIVER BELOW TACHEWANA CREEK,49.95392,-121.86275,"H= 1.156 (m),  Q= 23.8 (m3/s)",<1Y,0,=65.03%,50,https://wateroffice.ec.gc.ca/report/real_time_e.html?stn=08MF065,11:59AM Fri 2024-07-26
08MF068,COQUIHALLA RIVER ABOVE ALEXANDER CREEK,49.36945,-121.3889,"H= 1.844 (m),  Q= 9.1 (m3/s)",<1Y,0,=29.82%,20,https://wateroffice.ec.gc.ca/report/real_time_e.html?stn=08MF068,11:59AM Fri 2024-07-26
08MF072,FRASER RIVER AT LAIDLAW,49.31769,-121.62928,H= 23.953 (m),<1Y,0,NO DATA,-9999,https://wateroffice.ec.gc.ca/report/real_time_e.html?stn=08MF072,11:59AM Fri 2024-07-26
08MF073,FRASER RIVER AT HARRISON MILLS,49.21803,-121.94708,H= 7.719 (m),<1Y,0,NO DATA,-9999,https://wateroffice.ec.gc.ca/report/real_time_e.html?stn=08MF073,11:59AM Fri 2024-07-26
08MG005,LILLOOET RIVER NEAR PEMBERTON,50.33556,-122.7994,"H= 2.941 (m),  Q= 164 (m3/s)",<1Y,0,=128.95%,100,https://wateroffice.ec.gc.ca/report/real_time_e.html?stn=08MG005,11:59AM Fri 2024-07-26
08MG012,HARRISON LAKE NEAR HARRISON HOT SPRINGS,49.30861,-121.7736,H= 10.102 (m),<1Y,0,NO DATA,-9999,https://wateroffice.ec.gc.ca/report/real_time_e.html?stn=08MG012,11:59AM Fri 2024-07-26
08MG013,HARRISON RIVER NEAR HARRISON HOT SPRINGS,49.31111,-121.80222,NO DATA,=NO DATA,-9999,NO DATA,-9999,https://wateroffice.ec.gc.ca/report/real_time_e.html?stn=08MG013,11:59AM Fri 2024-07-26
08MG014,HARRISON RIVER AT HARRISON MILLS,49.23361,-121.95833,H= 8.09 (m),<1Y,0,NO DATA,-9999,https://wateroffice.ec.gc.ca/report/real_time_e.html?stn=08MG014,11:59AM Fri 2024-07-26
08MG022,HARRISON RIVER BELOW MORRIS CREEK,49.28528,-121.9017,H= 9.615 (m),<1Y,0,NO DATA,-9999,https://wateroffice.ec.gc.ca/report/real_time_e.html?stn=08MG022,11:59AM Fri 2024-07-26
08MG026,FITZSIMMONS CREEK BELOW BLACKCOMB CREEK,50.120277,-122.947222,"H= 5.151 (m),  Q= 5.09 (m3/s)",<1Y,0,=128.21%,100,https://wateroffice.ec.gc.ca/report/real_time_e.html?stn=08MG026,11:59AM Fri 2024-07-26
08MG027,LILLOOET RIVER AT TENAS NARROWS,50.09169,-122.53653,"H= 9.591 (m),  Q= 332 (m3/s)",<1Y,0,=122.16%,100,https://wateroffice.ec.gc.ca/report/real_time_e.html?stn=08MG027,11:59AM Fri 2024-07-26
08MH001,CHILLIWACK RIVER AT VEDDER CROSSING,49.097222,-121.9625,"H= 2.207 (m),  Q= 30.4 (m3/s)",<1Y,0,=45.13%,20,https://wateroffice.ec.gc.ca/report/real_time_e.html?stn=08MH001,11:59AM Fri 2024-07-26
08MH002,COQUITLAM RIVER AT PORT COQUITLAM,49.26556,-122.7808,"H= 7.656 (m),  Q= 1.06 (m3/s)",<1Y,0,=14.83%,10,https://wateroffice.ec.gc.ca/report/real_time_e.html?stn=08MH002,11:59AM Fri 2024-07-26
08MH005,ALOUETTE RIVER NEAR HANEY,49.23917,-122.5783,"H= 0.743 (m),  Q= 3.2 (m3/s)",<1Y,0,=60.95%,50,https://wateroffice.ec.gc.ca/report/real_time_e.html?stn=08MH005,11:59AM Fri 2024-07-26
08MH024,FRASER RIVER AT MISSION,49.1275,-122.3022,H= 1.765 (m),<1Y,0,NO DATA,-9999,https://wateroffice.ec.gc.ca/report/real_time_e.html?stn=08MH024,11:59AM Fri 2024-07-26
08MH028,FRASER RIVER AT STEVESTON,49.12417,-123.185,H= 3.154 (m),=NO RTP,-99,NO DATA,-9999,https://wateroffice.ec.gc.ca/report/real_time_e.html?stn=08MH028,11:59AM Fri 2024-07-26
08MH035,PITT RIVER NEAR PORT COQUITLAM,49.24444,-122.73333,H= 3.386 (m),<1Y,0,NO DATA,-9999,https://wateroffice.ec.gc.ca/report/real_time_e.html?stn=08MH035,11:59AM Fri 2024-07-26
08MH044,FRASER RIVER AT WHONNOCK,49.1725,-122.4739,H= 3.947 (m),<1Y,0,NO DATA,-9999,https://wateroffice.ec.gc.ca/report/real_time_e.html?stn=08MH044,11:59AM Fri 2024-07-26
08MH053,FRASER RIVER AT DEAS ISLAND TUNNEL,49.125,-123.0736,H= 0.734 (m),=NO RTP,-99,NO DATA,-9999,https://wateroffice.ec.gc.ca/report/real_time_e.html?stn=08MH053,11:59AM Fri 2024-07-26
08MH056,SLESSE CREEK NEAR VEDDER CROSSING,49.07111,-121.6994,"H= 0.58 (m),  Q= 4.28 (m3/s)",<1Y,0,=40.96%,20,https://wateroffice.ec.gc.ca/report/real_time_e.html?stn=08MH056,11:59AM Fri 2024-07-26
08MH103,CHILLIWACK RIVER ABOVE SLESSE CREEK,49.1025,-121.6617,"H= 0.879 (m),  Q= 20.4 (m3/s)",<1Y,0,=57.26%,50,https://wateroffice.ec.gc.ca/report/real_time_e.html?stn=08MH103,11:59AM Fri 2024-07-26
08MH126,FRASER RIVER AT PORT MANN PUMPING STATION,49.21778,-122.8269,H= 3.52 (m),<1Y,0,NO DATA,-9999,https://wateroffice.ec.gc.ca/report/real_time_e.html?stn=08MH126,11:59AM Fri 2024-07-26
08MH141,COQUITLAM RIVER ABOVE COQUITLAM LAKE,49.48889,-122.7914,"H= 1.704 (m),  Q= 1.24 (m3/s)",<1Y,0,=18.42%,10,https://wateroffice.ec.gc.ca/report/real_time_e.html?stn=08MH141,11:59AM Fri 2024-07-26
08MH147,STAVE RIVER ABOVE STAVE LAKE,49.55611,-122.3219,"H= 2.392 (m),  Q= 19.6 (m3/s)",<1Y,0,=56.86%,50,https://wateroffice.ec.gc.ca/report/real_time_e.html?stn=08MH147,11:59AM Fri 2024-07-26
08MH149,COQUITLAM LAKE FOREBAY,49.35556,-122.77778,H= 50.648 (m),=1-2Y,1,NO DATA,-9999,https://wateroffice.ec.gc.ca/report/real_time_e.html?stn=08MH149,11:59AM Fri 2024-07-26
08MH155,"NICOMEKL RIVER AT 203 STREET, LANGLEY",49.09583,-122.6586,"H= 0.561 (m),  Q= 0.285 (m3/s)",<1Y,0,=14.11%,10,https://wateroffice.ec.gc.ca/report/real_time_e.html?stn=08MH155,11:59AM Fri 2024-07-26
08MH168,OR CREEK NEAR COQUITLAM,49.36389,-122.73444,"H= 3.255 (m),  Q= 0.081 (m3/s)",<1Y,0,=4.38%,2,https://wateroffice.ec.gc.ca/report/real_time_e.html?stn=08MH168,11:59AM Fri 2024-07-26
08NA002,COLUMBIA RIVER AT NICHOLSON,51.24361,-116.91306,"H= 2.338 (m),  Q= 266 (m3/s)",=1-2Y,1,=237.01%,100,https://wateroffice.ec.gc.ca/report/real_time_e.html?stn=08NA002,11:59AM Fri 2024-07-26
08NA006,KICKING HORSE RIVER AT GOLDEN,51.3,-116.9681,"H= 4.001 (m),  Q= 90.5 (m3/s)",<1Y,0,=215.02%,100,https://wateroffice.ec.gc.ca/report/real_time_e.html?stn=08NA006,11:59AM Fri 2024-07-26
08NA011,SPILLIMACHEEN R NEAR SPILLIMACHEEN,50.90417,-116.40583,"H= 1.047 (m),  Q= 57.2 (m3/s)",<1Y,0,=160.4%,100,https://wateroffice.ec.gc.ca/report/real_time_e.html?stn=08NA011,11:59AM Fri 2024-07-26
08NB005,COLUMBIA RIVER AT DONALD,51.48333,-117.1792,"H= 3.205 (m),  Q= 383 (m3/s)",<1Y,0,=223.32%,100,https://wateroffice.ec.gc.ca/report/real_time_e.html?stn=08NB005,11:59AM Fri 2024-07-26
08NB017,KINBASKET LAKE BELOW GARRETT CREEK,51.88334,-117.8917,H= 744.598 (m),=1-2Y,1,NO DATA,-9999,https://wateroffice.ec.gc.ca/report/real_time_e.html?stn=08NB017,11:59AM Fri 2024-07-26
08NB019,BEAVER RIVER NEAR THE MOUTH,51.50972,-117.4617,NO DATA,=NO DATA,-9999,NO DATA,-9999,https://wateroffice.ec.gc.ca/report/real_time_e.html?stn=08NB019,11:59AM Fri 2024-07-26
08ND012,GOLDSTREAM RIVER BELOW OLD CAMP CREEK,51.66833,-118.5969,"H= 2.001 (m),  Q= 52.8 (m3/s)",<1Y,0,=134.76%,100,https://wateroffice.ec.gc.ca/report/real_time_e.html?stn=08ND012,11:59AM Fri 2024-07-26
08ND013,ILLECILLEWAET RIVER AT GREELEY,51.01361,-118.0825,"H= 1.652 (m),  Q= 68.6 (m3/s)",<1Y,0,=129.51%,100,https://wateroffice.ec.gc.ca/report/real_time_e.html?stn=08ND013,11:59AM Fri 2024-07-26
08NE049,COLUMBIA RIVER AT BIRCHBANK,49.17778,-117.7164,"H= 6.129 (m),  Q= 2640 (m3/s)",=1-2Y,1,=130.55%,100,https://wateroffice.ec.gc.ca/report/real_time_e.html?stn=08NE049,11:59AM Fri 2024-07-26
08NE074,SALMO RIVER NEAR SALMO,49.04694,-117.2936,"H= 0.683 (m),  Q= 7.94 (m3/s)",<1Y,0,=24.88%,20,https://wateroffice.ec.gc.ca/report/real_time_e.html?stn=08NE074,11:59AM Fri 2024-07-26
08NE102,ARROW RESERVOIR AT FAUQUIER,49.87222,-118.08,H= 434.766 (m),=1-2Y,1,NO DATA,-9999,https://wateroffice.ec.gc.ca/report/real_time_e.html?stn=08NE102,11:59AM Fri 2024-07-26
08NE104,ARROW RESERVOIR AT NAKUSP,50.23667,-117.7967,H= 434.71 (m),=1-2Y,1,NO DATA,-9999,https://wateroffice.ec.gc.ca/report/real_time_e.html?stn=08NE104,11:59AM Fri 2024-07-26
08NE123,CRANBERRY CREEK ABOVE B.C. HYDRO INTAKE,50.79481,-118.07783,"H= 24.439 (m),  Q= 3.94 (m3/s)",<1Y,0,=89.14%,50,https://wateroffice.ec.gc.ca/report/real_time_e.html?stn=08NE123,11:59AM Fri 2024-07-26
08NF001,KOOTENAY RIVER AT KOOTENAY CROSSING,50.88611,-116.0431,"H= 0.707 (m),  Q= 6.5 (m3/s)",<1Y,0,=133.74%,100,https://wateroffice.ec.gc.ca/report/real_time_e.html?stn=08NF001,11:59AM Fri 2024-07-26
08NG002,BULL RIVER NEAR WARDNER,49.49306,-115.3639,"H= 1.488 (m),  Q= 23.4 (m3/s)",<1Y,0,=71.91%,50,https://wateroffice.ec.gc.ca/report/real_time_e.html?stn=08NG002,11:59AM Fri 2024-07-26
08NG065,KOOTENAY RIVER AT FORT STEELE,49.61195,-115.6344,"H= 1.72 (m),  Q= 197 (m3/s)",<1Y,0,=114.21%,100,https://wateroffice.ec.gc.ca/report/real_time_e.html?stn=08NG065,11:59AM Fri 2024-07-26
08NH005,KASLO RIVER BELOW KEMP CREEK,49.9075,-116.9519,"H= 2.231 (m),  Q= 9.98 (m3/s)",<1Y,0,=74.59%,50,https://wateroffice.ec.gc.ca/report/real_time_e.html?stn=08NH005,11:59AM Fri 2024-07-26
08NH064,KOOTENAY LAKE AT QUEENS BAY,49.65445,-116.9297,H= 531.372 (m),<1Y,0,NO DATA,-9999,https://wateroffice.ec.gc.ca/report/real_time_e.html?stn=08NH064,11:59AM Fri 2024-07-26
08NH067,KOOTENAY LAKE AT KUSKONOOK,49.29889,-116.65861,H= 531.505 (m),<1Y,0,NO DATA,-9999,https://wateroffice.ec.gc.ca/report/real_time_e.html?stn=08NH067,11:59AM Fri 2024-07-26
08NH084,ARROW CREEK NEAR ERICKSON,49.15889,-116.45111,"H= 0.357 (m),  Q= 0.454 (m3/s)",<1Y,0,=26.55%,20,https://wateroffice.ec.gc.ca/report/real_time_e.html?stn=08NH084,11:59AM Fri 2024-07-26
08NH118,DUNCAN RIVER BELOW LARDEAU RIVER,50.23222,-116.955,"H= 2.02 (m),  Q= 121 (m3/s)",<1Y,0,=74.36%,50,https://wateroffice.ec.gc.ca/report/real_time_e.html?stn=08NH118,11:59AM Fri 2024-07-26
08NH119,DUNCAN RIVER BELOW B.B. CREEK,50.63805,-117.0472,"H= 1.956 (m),  Q= 85.8 (m3/s)",<1Y,0,=137.26%,100,https://wateroffice.ec.gc.ca/report/real_time_e.html?stn=08NH119,11:59AM Fri 2024-07-26
08NH127,DUNCAN RESERVOIR AT DUNCAN DAM,50.25556,-116.9475,H= 572.238 (m),<1Y,0,NO DATA,-9999,https://wateroffice.ec.gc.ca/report/real_time_e.html?stn=08NH127,11:59AM Fri 2024-07-26
08NJ013,SLOCAN RIVER NEAR CRESCENT VALLEY,49.46056,-117.5644,"H= 1.383 (m),  Q= 81.4 (m3/s)",<1Y,0,=90.97%,50,https://wateroffice.ec.gc.ca/report/real_time_e.html?stn=08NJ013,11:59AM Fri 2024-07-26
08NJ026,DUHAMEL CREEK ABOVE DIVERSIONS,49.59556,-117.245,"H= 0.702 (m),  Q= 0.534 (m3/s)",<1Y,0,=34.9%,20,https://wateroffice.ec.gc.ca/report/real_time_e.html?stn=08NJ026,11:59AM Fri 2024-07-26
08NJ061,REDFISH CREEK NEAR HARROP,49.62222,-117.0541,"H= 4.672 (m),  Q= 0.187 (m3/s)",<1Y,0,=21.74%,20,https://wateroffice.ec.gc.ca/report/real_time_e.html?stn=08NJ061,11:59AM Fri 2024-07-26
08NJ160,LEMON CREEK ABOVE SOUTH LEMON CREEK,49.6975,-117.45,"H= 0.832 (m),  Q= 2.5 (m3/s)",<1Y,0,=52.97%,50,https://wateroffice.ec.gc.ca/report/real_time_e.html?stn=08NJ160,11:59AM Fri 2024-07-26
08NK002,ELK RIVER AT FERNIE,49.51,-115.0714,"H= 1.924 (m),  Q= 42.6 (m3/s)",<1Y,0,=90.03%,50,https://wateroffice.ec.gc.ca/report/real_time_e.html?stn=08NK002,11:59AM Fri 2024-07-26
08NK018,FORDING RIVER AT THE MOUTH,49.89417,-114.86472,"H= 1.991 (m),  Q= 6.12 (m3/s)",<1Y,0,=76.69%,50,https://wateroffice.ec.gc.ca/report/real_time_e.html?stn=08NK018,11:59AM Fri 2024-07-26
08NK030,ELK RIVER BELOW ELKO DAM,49.28883,-115.10455,H= 2.338 (m),<1Y,0,NO DATA,-9999,https://wateroffice.ec.gc.ca/report/real_time_e.html?stn=08NK030,11:59AM Fri 2024-07-26
08NL007,SIMILKAMEEN RIVER AT PRINCETON,49.45972,-120.5019,"H= 0.659 (m),  Q= 5.24 (m3/s)",<1Y,0,=22.02%,20,https://wateroffice.ec.gc.ca/report/real_time_e.html?stn=08NL007,11:59AM Fri 2024-07-26
08NL024,TULAMEEN RIVER AT PRINCETON,49.4575,-120.5181,"H= 0.196 (m),  Q= 2.31 (m3/s)",<1Y,0,=10.55%,10,https://wateroffice.ec.gc.ca/report/real_time_e.html?stn=08NL024,11:59AM Fri 2024-07-26
08NL038,SIMILKAMEEN RIVER NEAR HEDLEY,49.3775,-120.1517,"H= 0.769 (m),  Q= 8.47 (m3/s)",<1Y,0,=17.43%,10,https://wateroffice.ec.gc.ca/report/real_time_e.html?stn=08NL038,11:59AM Fri 2024-07-26
08NL039,SIWASH CREEK NEAR PRINCETON,49.66306,-120.33333,"H= 0.706 (m),  Q= 0.127 (m3/s)",<1Y,0,=9.34%,5,https://wateroffice.ec.gc.ca/report/real_time_e.html?stn=08NL039,11:59AM Fri 2024-07-26
08NL050,HEDLEY CREEK NEAR THE MOUTH,49.365,-120.06639,"H= 2.033 (m),  Q= 0.433 (m3/s)",<1Y,0,=17.46%,10,https://wateroffice.ec.gc.ca/report/real_time_e.html?stn=08NL050,11:59AM Fri 2024-07-26
08NL071,TULAMEEN RIVER BELOW VUICH CREEK,49.46611,-120.9767,"H= 0.697 (m),  Q= 0.801 (m3/s)",<1Y,0,=12.46%,10,https://wateroffice.ec.gc.ca/report/real_time_e.html?stn=08NL071,11:59AM Fri 2024-07-26
08NM002,OKANAGAN RIVER AT OKANAGAN FALLS,49.34056,-119.5778,"H= 1.461 (m),  Q= 11.6 (m3/s)",=1-2Y,1,=70.01%,50,https://wateroffice.ec.gc.ca/report/real_time_e.html?stn=08NM002,11:59AM Fri 2024-07-26
08NM037,SHATFORD CREEK NEAR PENTICTON,49.42833,-119.74917,"H= 1.112 (m),  Q= 0.152 (m3/s)",<1Y,0,=37.07%,20,https://wateroffice.ec.gc.ca/report/real_time_e.html?stn=08NM037,11:59AM Fri 2024-07-26
08NM041,TREPANIER CREEK NEAR PEACHLAND,49.82583,-119.78694,NO DATA,=NO DATA,-9999,NO DATA,-9999,https://wateroffice.ec.gc.ca/report/real_time_e.html?stn=08NM041,11:59AM Fri 2024-07-26
08NM050,OKANAGAN RIVER AT PENTICTON,49.49556,-119.6153,"H= 1.839 (m),  Q= 12.4 (m3/s)",=1-2Y,1,=78.48%,50,https://wateroffice.ec.gc.ca/report/real_time_e.html?stn=08NM050,11:59AM Fri 2024-07-26
08NM065,VERNON CREEK AT OUTLET OF KALAMALKA LAKE,50.23833,-119.2653,"H= 0.637 (m),  Q= 0.187 (m3/s)",<1Y,0,=20.55%,20,https://wateroffice.ec.gc.ca/report/real_time_e.html?stn=08NM065,11:59AM Fri 2024-07-26
08NM083,OKANAGAN LAKE AT KELOWNA,49.88611,-119.4972,H= 1.935 (m),=1-2Y,1,NO DATA,-9999,https://wateroffice.ec.gc.ca/report/real_time_e.html?stn=08NM083,11:59AM Fri 2024-07-26
08NM084,SKAHA LAKE AT OKANAGAN FALLS,49.42778,-119.5736,H= 2.38 (m),<1Y,0,NO DATA,-9999,https://wateroffice.ec.gc.ca/report/real_time_e.html?stn=08NM084,11:59AM Fri 2024-07-26
08NM085,OKANAGAN RIVER NEAR OLIVER,49.11472,-119.5639,"H= 0.697 (m),  Q= 9.71 (m3/s)",<1Y,0,=50.05%,50,https://wateroffice.ec.gc.ca/report/real_time_e.html?stn=08NM085,11:59AM Fri 2024-07-26
08NM116,MISSION CREEK NEAR EAST KELOWNA,49.87889,-119.4131,"H= 0.53 (m),  Q= 2.1 (m3/s)",<1Y,0,=32.11%,20,https://wateroffice.ec.gc.ca/report/real_time_e.html?stn=08NM116,11:59AM Fri 2024-07-26
08NM134,CAMP CREEK AT MOUTH NEAR THIRSK,49.71111,-120.0083,"H= 0.843 (m),  Q= 0.033 (m3/s)",<1Y,0,=22%,20,https://wateroffice.ec.gc.ca/report/real_time_e.html?stn=08NM134,11:59AM Fri 2024-07-26
08NM142,COLDSTREAM CREEK ABOVE MUNICIPAL INTAKE,50.257778,-119.081944,NO DATA,=NO DATA,-9999,NO DATA,-9999,https://wateroffice.ec.gc.ca/report/real_time_e.html?stn=08NM142,11:59AM Fri 2024-07-26
08NM143,KALAMALKA LAKE AT VERNON PUMPHOUSE,50.22972,-119.2736,H= 5.134 (m),<1Y,0,NO DATA,-9999,https://wateroffice.ec.gc.ca/report/real_time_e.html?stn=08NM143,11:59AM Fri 2024-07-26
08NM146,CLARK CREEK NEAR WINFIELD,50.05278,-119.33056,"H= 0.837 (m),  Q= 0.005 (m3/s)",<1Y,0,=6.25%,5,https://wateroffice.ec.gc.ca/report/real_time_e.html?stn=08NM146,11:59AM Fri 2024-07-26
08NM171,VASEUX CREEK ABOVE SOLCO CREEK,49.249444,-119.321111,"H= 1.062 (m),  Q= 0.185 (m3/s)",<1Y,0,=20.56%,20,https://wateroffice.ec.gc.ca/report/real_time_e.html?stn=08NM171,11:59AM Fri 2024-07-26
08NM174,WHITEMAN CREEK ABOVE BOULEAU CREEK,50.21222,-119.5386,"H= 0.735 (m),  Q= 0.21 (m3/s)",<1Y,0,=32.81%,20,https://wateroffice.ec.gc.ca/report/real_time_e.html?stn=08NM174,11:59AM Fri 2024-07-26
08NM200,INKANEEP CREEK NEAR THE MOUTH,49.077888,-119.502111,"H= 1.21 (m),  Q= 0.089 (m3/s)",<1Y,0,=21.71%,20,https://wateroffice.ec.gc.ca/report/real_time_e.html?stn=08NM200,11:59AM Fri 2024-07-26
08NM241,TWO FORTY ONE CREEK NEAR PENTICTON,49.6514,-119.3917,Q= 0.002 (m3/s),<1Y,0,=3.33%,2,https://wateroffice.ec.gc.ca/report/real_time_e.html?stn=08NM241,11:59AM Fri 2024-07-26
08NM243,VASEUX LAKE NEAR THE OUTLET,49.27361,-119.5233,H= 7.85 (m),<1Y,0,NO DATA,-9999,https://wateroffice.ec.gc.ca/report/real_time_e.html?stn=08NM243,11:59AM Fri 2024-07-26
08NM247,OKANAGAN RIVER BELOW MCINTYRE DAM,49.25511,-119.51667,"H= 1.231 (m),  Q= 8.12 (m3/s)",<1Y,0,=39.19%,20,https://wateroffice.ec.gc.ca/report/real_time_e.html?stn=08NM247,11:59AM Fri 2024-07-26
08NN002,GRANBY RIVER NEAR GRAND FORKS,49.044167,-118.438611,"H= 0.958 (m),  Q= 4.64 (m3/s)",<1Y,0,=15.19%,10,https://wateroffice.ec.gc.ca/report/real_time_e.html?stn=08NN002,11:59AM Fri 2024-07-26
08NN003,WEST KETTLE RIVER AT WESTBRIDGE,49.17,-118.9744,"H= 0.659 (m),  Q= 1.64 (m3/s)",<1Y,0,=12.25%,10,https://wateroffice.ec.gc.ca/report/real_time_e.html?stn=08NN003,11:59AM Fri 2024-07-26
08NN026,KETTLE RIVER NEAR WESTBRIDGE,49.23,-118.9275,"H= 0.888 (m),  Q= 4.59 (m3/s)",<1Y,0,=16.41%,10,https://wateroffice.ec.gc.ca/report/real_time_e.html?stn=08NN026,11:59AM Fri 2024-07-26
08OA002,YAKOUN RIVER NEAR PORT CLEMENTS,53.61389,-132.2097,"H= 0.773 (m),  Q= 3.21 (m3/s)",<1Y,0,=10.58%,10,https://wateroffice.ec.gc.ca/report/real_time_e.html?stn=08OA002,11:59AM Fri 2024-07-26
08OA003,PREMIER CREEK NEAR QUEEN CHARLOTTE,53.25856,-132.07531,"H= 0.765 (m),  Q= 0.002 (m3/s)",<1Y,0,=10%,10,https://wateroffice.ec.gc.ca/report/real_time_e.html?stn=08OA003,11:59AM Fri 2024-07-26
08OB002,PALLANT CREEK NEAR QUEEN CHARLOTTE,53.05761,-132.0515,"H= 1.555 (m),  Q= 1.15 (m3/s)",<1Y,0,=14.39%,10,https://wateroffice.ec.gc.ca/report/real_time_e.html?stn=08OB002,11:59AM Fri 2024-07-26
08PA004,SKAGIT RIVER AT INTERNATIONAL BOUNDARY,49.00028,-121.0708,NO DATA,=NO DATA,-9999,NO DATA,-9999,https://wateroffice.ec.gc.ca/report/real_time_e.html?stn=08PA004,11:59AM Fri 2024-07-26
09AA001,ATLIN LAKE AT ATLIN,59.575,-133.7086,H= 2.789 (m),=1-2Y,1,NO DATA,-9999,https://wateroffice.ec.gc.ca/report/real_time_e.html?stn=09AA001,11:59AM Fri 2024-07-26
09AA013,TUTSHI RIVER AT OUTLET OF TUTSHI LAKE,59.94778,-134.3325,"H= 11.904 (m),  Q= 68.7 (m3/s)",=2-5Y,2,=430.72%,100,https://wateroffice.ec.gc.ca/report/real_time_e.html?stn=09AA013,11:59AM Fri 2024-07-26
09AA018,MOON CREEK NEAR THE OUTLET OF MOON LAKE,59.83461,-134.68567,NO DATA,=NO DATA,-9999,NO DATA,-9999,https://wateroffice.ec.gc.ca/report/real_time_e.html?stn=09AA018,11:59AM Fri 2024-07-26
09AE003,SWIFT RIVER NEAR SWIFT RIVER,59.93056,-131.76778,"H= 1.711 (m),  Q= 120 (m3/s)",<1Y,0,=254.83%,100,https://wateroffice.ec.gc.ca/report/real_time_e.html?stn=09AE003,11:59AM Fri 2024-07-26
10AC005,COTTONWOOD RIVER ABOVE BASS CREEK,59.11889,-129.82306,"H= 1.217 (m),  Q= 46.5 (m3/s)",<1Y,0,=252.31%,100,https://wateroffice.ec.gc.ca/report/real_time_e.html?stn=10AC005,11:59AM Fri 2024-07-26
10BE001,LIARD RIVER AT LOWER CROSSING,59.4125,-126.0972,"H= 11.284 (m),  Q= 2470 (m3/s)",=1-2Y,1,=214.42%,100,https://wateroffice.ec.gc.ca/report/real_time_e.html?stn=10BE001,11:59AM Fri 2024-07-26
10BE004,TOAD RIVER ABOVE NONDA CREEK,58.85497,-125.38261,"H= 2.078 (m),  Q= 113 (m3/s)",<1Y,0,=262.91%,100,https://wateroffice.ec.gc.ca/report/real_time_e.html?stn=10BE004,11:59AM Fri 2024-07-26
10BE007,TROUT RIVER AT KILOMETRE 783.7 ALASKA HIGHWAY,59.33597,-125.94025,"H= 2.549 (m),  Q= 34.4 (m3/s)",=1-2Y,1,=212.87%,100,https://wateroffice.ec.gc.ca/report/real_time_e.html?stn=10BE007,11:59AM Fri 2024-07-26
10BE009,TEETER CREEK NEAR THE MOUTH,59.45417,-126.2275,"H= 7.701 (m),  Q= 1.46 (m3/s)",=1-2Y,1,=129.2%,100,https://wateroffice.ec.gc.ca/report/real_time_e.html?stn=10BE009,11:59AM Fri 2024-07-26
10BE013,SMITH RIVER NEAR THE MOUTH,59.55333,-126.48056,"H= 1.166 (m),  Q= 35.1 (m3/s)",=1-2Y,1,=137.86%,100,https://wateroffice.ec.gc.ca/report/real_time_e.html?stn=10BE013,11:59AM Fri 2024-07-26
10CA001,FONTAS RIVER NEAR THE MOUTH,58.2708,-121.4639,"H= 6.649 (m),  Q= 5.09 (m3/s)",<1Y,0,=17.9%,10,https://wateroffice.ec.gc.ca/report/real_time_e.html?stn=10CA001,11:59AM Fri 2024-07-26
10CB001,SIKANNI CHIEF RIVER NEAR FORT NELSON,57.2342,-122.6942,"H= 1.596 (m),  Q= 43.9 (m3/s)",<1Y,0,=168.72%,100,https://wateroffice.ec.gc.ca/report/real_time_e.html?stn=10CB001,11:59AM Fri 2024-07-26
10CD001,MUSKWA RIVER NEAR FORT NELSON,58.7884,-122.6592,"H= 1.68 (m),  Q= 689 (m3/s)",=1-2Y,1,=319.14%,100,https://wateroffice.ec.gc.ca/report/real_time_e.html?stn=10CD001,11:59AM Fri 2024-07-26
10CD003,RASPBERRY CREEK NEAR THE MOUTH,58.89389,-123.31917,"H= 0.363 (m),  Q= 0.181 (m3/s)",<1Y,0,=14.96%,10,https://wateroffice.ec.gc.ca/report/real_time_e.html?stn=10CD003,11:59AM Fri 2024-07-26
10CD004,BOUGIE CREEK AT KILOMETRE 368 ALASKA HIGHWAY,58.03028,-122.71861,"H= 1.803 (m),  Q= 1.8 (m3/s)",<1Y,0,=71.15%,50,https://wateroffice.ec.gc.ca/report/real_time_e.html?stn=10CD004,11:59AM Fri 2024-07-26
10CD005,ADSETT CREEK AT KILOMETRE 386.0 ALASKA HIGHWAY,58.10611,-122.71556,"H= 0.833 (m),  Q= 0.012 (m3/s)",<1Y,0,=1.45%,1,https://wateroffice.ec.gc.ca/report/real_time_e.html?stn=10CD005,11:59AM Fri 2024-07-26
10DA001,PETITOT RIVER BELOW HIGHWAY NO. 77,59.98889,-122.95639,"H= 5.248 (m),  Q= 3.08 (m3/s)",<1Y,0,=5.17%,5,https://wateroffice.ec.gc.ca/report/real_time_e.html?stn=10DA001,11:59AM Fri 2024-07-26
08CD001,TUYA RIVER NEAR TELEGRAPH CREEK,58.07222,-130.8242,"H= 1.485 (m),  Q= 95.7 (m3/s)",<1Y,0,=259.56%,100,https://wateroffice.ec.gc.ca/report/real_time_e.html?stn=08CD001,11:59AM Fri 2024-07-26
08KH031,HORSEFLY RIVER ABOVE QUESNEL LAKE,52.44431,-121.41814,"H= 4.755 (m),  Q= 23.1 (m3/s)",<1Y,0,=65.61%,50,https://wateroffice.ec.gc.ca/report/real_time_e.html?stn=08KH031,11:59AM Fri 2024-07-26
08LA027,BRIDGE CREEK BELOW DEKA CREEK,51.58761,-120.92075,"H= 3.641 (m),  Q= 0.676 (m3/s)",=1-2Y,1,=56.81%,50,https://wateroffice.ec.gc.ca/report/real_time_e.html?stn=08LA027,11:59AM Fri 2024-07-26
08LB076,HARPER CREEK NEAR THE MOUTH,51.35417,-119.88056,"H= 1.058 (m),  Q= 1.61 (m3/s)",<1Y,0,=40.15%,20,https://wateroffice.ec.gc.ca/report/real_time_e.html?stn=08LB076,11:59AM Fri 2024-07-26
08HB075,DOVE CREEK NEAR THE MOUTH,49.73658,-125.08572,"H= 1.082 (m),  Q= 0.017 (m3/s)",<1Y,0,=0.85%,0,https://wateroffice.ec.gc.ca/report/real_time_e.html?stn=08HB075,11:59AM Fri 2024-07-26
08LB078,LEMIEUX CREEK NEAR THE MOUTH,51.42611,-120.20194,"H= 0.986 (m),  Q= 1.02 (m3/s)",<1Y,0,=32.18%,20,https://wateroffice.ec.gc.ca/report/real_time_e.html?stn=08LB078,11:59AM Fri 2024-07-26
08LC039,BESSETTE CREEK ABOVE BEAVERJACK CREEK,50.29778,-118.85833,"H= 0.45 (m),  Q= 0.787 (m3/s)",<1Y,0,=21.27%,20,https://wateroffice.ec.gc.ca/report/real_time_e.html?stn=08LC039,11:59AM Fri 2024-07-26
08LF007,CRISS CREEK NEAR SAVONA,50.88444,-120.965,H= -0.281 (m),<1Y,0,NO DATA,-9999,https://wateroffice.ec.gc.ca/report/real_time_e.html?stn=08LF007,11:59AM Fri 2024-07-26
08LF027,DEADMAN RIVER ABOVE CRISS CREEK,50.89806,-120.97444,"H= 0.469 (m),  Q= 1.14 (m3/s)",<1Y,0,=58.76%,50,https://wateroffice.ec.gc.ca/report/real_time_e.html?stn=08LF027,11:59AM Fri 2024-07-26
08LG008,SPIUS CREEK NEAR CANFORD,50.13528,-121.02972,"H= 0.832 (m),  Q= 1.94 (m3/s)",<1Y,0,=18.65%,10,https://wateroffice.ec.gc.ca/report/real_time_e.html?stn=08LG008,11:59AM Fri 2024-07-26
08LG067,GUICHON CREEK AT THE MOUTH,50.14694,-120.87972,NO DATA,=NO DATA,-9999,NO DATA,-9999,https://wateroffice.ec.gc.ca/report/real_time_e.html?stn=08LG067,11:59AM Fri 2024-07-26
08MB006,BIG CREEK ABOVE GROUNDHOG CREEK,51.52369,-123.11589,"H= 0.85 (m),  Q= 5.58 (m3/s)",<1Y,0,=92.08%,50,https://wateroffice.ec.gc.ca/report/real_time_e.html?stn=08MB006,11:59AM Fri 2024-07-26
08MD035,DASH CREEK ABOVE CHURN CREEK,51.26433,-122.92156,"H= 3.347 (m),  Q= 0.485 (m3/s)",<1Y,0,=95.1%,50,https://wateroffice.ec.gc.ca/report/real_time_e.html?stn=08MD035,11:59AM Fri 2024-07-26
08MH076,KANAKA CREEK NEAR WEBSTER CORNERS,49.20706,-122.53672,"H= 0.802 (m),  Q= 0.15 (m3/s)",<1Y,0,=5.51%,5,https://wateroffice.ec.gc.ca/report/real_time_e.html?stn=08MH076,11:59AM Fri 2024-07-26
08NB014,GOLD RIVER ABOVE PALMER CREEK,51.67694,-117.71667,"H= 2.069 (m),  Q= 33.4 (m3/s)",<1Y,0,=183.92%,100,https://wateroffice.ec.gc.ca/report/real_time_e.html?stn=08NB014,11:59AM Fri 2024-07-26
08NB020,NORDIC CREEK AT THE OUTLET OF NORDIC GLACIER,51.44881,-117.69397,"H= 3.293 (m),  Q= 1.08 (m3/s)",<1Y,0,=110.2%,100,https://wateroffice.ec.gc.ca/report/real_time_e.html?stn=08NB020,11:59AM Fri 2024-07-26
08NE110,INONOAKLIN CREEK ABOVE VALLEY CREEK,49.89778,-118.19,"H= 1.425 (m),  Q= 0.834 (m3/s)",<1Y,0,=21.66%,20,https://wateroffice.ec.gc.ca/report/real_time_e.html?stn=08NE110,11:59AM Fri 2024-07-26
08NH016,DUCK CREEK NEAR WYNNDEL,49.20278,-116.53222,"H= 0.999 (m),  Q= 0.527 (m3/s)",<1Y,0,=57.91%,50,https://wateroffice.ec.gc.ca/report/real_time_e.html?stn=08NH016,11:59AM Fri 2024-07-26
08NH132,KEEN CREEK BELOW KYAWATS CREEK,49.87167,-117.12028,"H= 1.321 (m),  Q= 2.69 (m3/s)",<1Y,0,=81.27%,50,https://wateroffice.ec.gc.ca/report/real_time_e.html?stn=08NH132,11:59AM Fri 2024-07-26
08NL004,ASHNOLA RIVER NEAR KEREMEOS,49.20917,-119.98972,"H= 1.204 (m),  Q= 3.65 (m3/s)",<1Y,0,=45.85%,20,https://wateroffice.ec.gc.ca/report/real_time_e.html?stn=08NL004,11:59AM Fri 2024-07-26
08NN015,WEST KETTLE RIVER NEAR MCCULLOCH,49.70417,-119.09194,"H= 1.228 (m),  Q= 0.479 (m3/s)",<1Y,0,=14.26%,10,https://wateroffice.ec.gc.ca/report/real_time_e.html?stn=08NN015,11:59AM Fri 2024-07-26
08GA061,MACKAY CREEK AT MONTROYAL BOULEVARD,49.35616,-123.09986,"H= 0.519 (m),  Q= 0.016 (m3/s)",<1Y,0,=6.96%,5,https://wateroffice.ec.gc.ca/report/real_time_e.html?stn=08GA061,11:59AM Fri 2024-07-26
08NN019,TRAPPING CREEK NEAR THE MOUTH,49.56444,-119.05222,"H= 0.683 (m),  Q= 0.095 (m3/s)",<1Y,0,=6.69%,5,https://wateroffice.ec.gc.ca/report/real_time_e.html?stn=08NN019,11:59AM Fri 2024-07-26
08NN023,BURRELL CREEK ABOVE GLOUCESTER CREEK,49.58917,-118.31111,"H= 1.421 (m),  Q= 0.339 (m3/s)",<1Y,0,=7.72%,5,https://wateroffice.ec.gc.ca/report/real_time_e.html?stn=08NN023,11:59AM Fri 2024-07-26
08NL076,EWART CREEK NEAR CATHEDRAL PARK,49.13111,-120.03667,"H= 1.008 (m),  Q= 0.938 (m3/s)",<1Y,0,=53.3%,50,https://wateroffice.ec.gc.ca/report/real_time_e.html?stn=08NL076,11:59AM Fri 2024-07-26
07FD004,ALCES RIVER AT 22ND BASE LINE,56.33422,-120.15514,NO DATA,=NO DATA,-9999,NO DATA,-9999,https://wateroffice.ec.gc.ca/report/real_time_e.html?stn=07FD004,11:59AM Fri 2024-07-26
08HF004,TSITIKA RIVER BELOW CATHERINE CREEK,50.44036,-126.57851,"H= 1.378 (m),  Q= 2.94 (m3/s)",<1Y,0,=13.01%,10,https://wateroffice.ec.gc.ca/report/real_time_e.html?stn=08HF004,11:59AM Fri 2024-07-26
08HF014,KEOGH RIVER NEAR PORT HARDY,50.67197,-127.34867,"H= 4.344 (m),  Q= 0.187 (m3/s)",<1Y,0,=3.25%,2,https://wateroffice.ec.gc.ca/report/real_time_e.html?stn=08HF014,11:59AM Fri 2024-07-26
08ME025,YALAKOM RIVER ABOVE ORE CREEK,50.91261,-122.23931,"H= 1.35 (m),  Q= 5.71 (m3/s)",<1Y,0,=128.31%,100,https://wateroffice.ec.gc.ca/report/real_time_e.html?stn=08ME025,11:59AM Fri 2024-07-26
08NB012,BLAEBERRY RIVER ABOVE WILLOWBANK CREEK,51.4825,-116.96936,"H= 1.316 (m),  Q= 34.4 (m3/s)",<1Y,0,=205.86%,100,https://wateroffice.ec.gc.ca/report/real_time_e.html?stn=08NB012,11:59AM Fri 2024-07-26
08NE006,KUSKANAX CREEK NEAR NAKUSP,50.2775,-117.7481,"H= 0.51 (m),  Q= 5.63 (m3/s)",<1Y,0,=40.24%,20,https://wateroffice.ec.gc.ca/report/real_time_e.html?stn=08NE006,11:59AM Fri 2024-07-26
08NE039,BIG SHEEP CREEK NEAR ROSSLAND,49.01465,-117.9453,"H= 0.449 (m),  Q= 0.929 (m3/s)",<1Y,0,=16.71%,10,https://wateroffice.ec.gc.ca/report/real_time_e.html?stn=08NE039,11:59AM Fri 2024-07-26
08NE114,HIDDEN CREEK NEAR THE MOUTH,49.23454,-117.23917,"H= 0.324 (m),  Q= 0.366 (m3/s)",<1Y,0,=22.59%,20,https://wateroffice.ec.gc.ca/report/real_time_e.html?stn=08NE114,11:59AM Fri 2024-07-26
08NG076,MATHER CREEK BELOW HOULE CREEK,49.725,-115.925,"H= 2.253 (m),  Q= 0.703 (m3/s)",<1Y,0,=52.86%,50,https://wateroffice.ec.gc.ca/report/real_time_e.html?stn=08NG076,11:59AM Fri 2024-07-26
08NH007,LARDEAU RIVER AT MARBLEHEAD,50.26287,-116.96829,"H= 1.383 (m),  Q= 64.5 (m3/s)",<1Y,0,=109.08%,100,https://wateroffice.ec.gc.ca/report/real_time_e.html?stn=08NH007,11:59AM Fri 2024-07-26
08NH139,MOYIE RIVER ABOVE NOKE CREEK,49.39944444,-115.9977,"H= 1.799 (m),  Q= 0.387 (m3/s)",<1Y,0,=17.2%,10,https://wateroffice.ec.gc.ca/report/real_time_e.html?stn=08NH139,11:59AM Fri 2024-07-26
08NK016,ELK RIVER NEAR NATAL,49.86562,-114.86868,"H= 0.776 (m),  Q= 33.3 (m3/s)",<1Y,0,=127.93%,100,https://wateroffice.ec.gc.ca/report/real_time_e.html?stn=08NK016,11:59AM Fri 2024-07-26
08NL069,PASAYTEN RIVER ABOVE CALCITE CREEK,49.09893,-120.57937,"H= 0.963 (m),  Q= 3.02 (m3/s)",<1Y,0,=37.01%,20,https://wateroffice.ec.gc.ca/report/real_time_e.html?stn=08NL069,11:59AM Fri 2024-07-26
08NL070,SIMILKAMEEN RIVER ABOVE GOODFELLOW CREEK,49.0941,-120.67255,"H= 0.65 (m),  Q= 2.04 (m3/s)",<1Y,0,=25.66%,20,https://wateroffice.ec.gc.ca/report/real_time_e.html?stn=08NL070,11:59AM Fri 2024-07-26
08NM240,TWO FORTY CREEK NEAR PENTICTON,49.65089,-119.40003,Q= 0.018 (m3/s),<1Y,0,=30%,20,https://wateroffice.ec.gc.ca/report/real_time_e.html?stn=08NM240,11:59AM Fri 2024-07-26
08NM242,DENNIS CREEK NEAR 1780 METRE CONTOUR,49.62414,-119.38117,Q= 0.003 (m3/s),<1Y,0,=6%,5,https://wateroffice.ec.gc.ca/report/real_time_e.html?stn=08NM242,11:59AM Fri 2024-07-26
08NN028,LOST HORSE CREEK NEAR CHRISTIAN VALLEY,49.36582,-118.84931,"H= 0.793 (m),  Q= 0.038 (m3/s)",<1Y,0,=19%,10,https://wateroffice.ec.gc.ca/report/real_time_e.html?stn=08NN028,11:59AM Fri 2024-07-26
08NJ130,ANDERSON CREEK NEAR NELSON,49.50195,-117.26128,"H= 0.072 (m),  Q= 0.055 (m3/s)",<1Y,0,=50%,50,https://wateroffice.ec.gc.ca/report/real_time_e.html?stn=08NJ130,11:59AM Fri 2024-07-26
07FD019,KISKATINAW RIVER BELOW BORDEN CREEK,55.19281,-120.2735,"H= 7.659 (m),  Q= 0.118 (m3/s)",<1Y,0,=3.31%,2,https://wateroffice.ec.gc.ca/report/real_time_e.html?stn=07FD019,11:59AM Fri 2024-07-26
08MG020,LILLOOET LAKE NEAR PEMBERTON,50.24036,-122.48113,H= 26.451 (m),<1Y,0,NO DATA,-9999,https://wateroffice.ec.gc.ca/report/real_time_e.html?stn=08MG020,11:59AM Fri 2024-07-26
08HD003,CAMPBELL RIVER NEAR CAMPBELL RIVER,50.03806,-125.29472,NO DATA,=NO DATA,-9999,NO DATA,-9999,https://wateroffice.ec.gc.ca/report/real_time_e.html?stn=08HD003,11:59AM Fri 2024-07-26
08NH138,HUMPHRIES CREEK NEAR TROUT LAKE,50.63361,-117.54472,"H= 0.621 (m),  Q= 0.3 (m3/s)",<1Y,0,=90.91%,50,https://wateroffice.ec.gc.ca/report/real_time_e.html?stn=08NH138,11:59AM Fri 2024-07-26
08HB084,PUNTLEDGE RIVER BELOW DIVERSION,49.66833,-125.0872,"H= 120.689 (m),  Q= 14.5 (m3/s)",<1Y,0,=88.2%,50,https://wateroffice.ec.gc.ca/report/real_time_e.html?stn=08HB084,11:59AM Fri 2024-07-26
08MF062,COQUIHALLA RIVER BELOW NEEDLE CREEK,49.54189,-121.11997,"H= 2.03 (m),  Q= 1.06 (m3/s)",<1Y,0,=30.46%,20,https://wateroffice.ec.gc.ca/report/real_time_e.html?stn=08MF062,11:59AM Fri 2024-07-26
08LG041,GUICHON CREEK AT OUTLET OF MAMIT LAKE,50.36111,-120.80994,"H= 2.442 (m),  Q= 0.495 (m3/s)",=1-2Y,1,=49.5%,20,https://wateroffice.ec.gc.ca/report/real_time_e.html?stn=08LG041,11:59AM Fri 2024-07-26
08ME029,BRIDGE RIVER BELOW LAJOIE DAM,50.8454,-122.8494,"H= 2.589 (m),  Q= 78.2 (m3/s)",<1Y,0,=184.65%,100,https://wateroffice.ec.gc.ca/report/real_time_e.html?stn=08ME029,11:59AM Fri 2024-07-26
08MHX24,FRASER RIVER AT MISSION (AUXILIARY GAUGE),49.12774,-122.30294,H= 1.764 (m),=NO RTP,-99,NO DATA,-9999,https://wateroffice.ec.gc.ca/report/real_time_e.html?stn=08MHX24,11:59AM Fri 2024-07-26
07FBX08,MOBERLY RIVER NEAR FORT ST. JOHN (AUXILIARY STATION),56.0925,-121.36678,"H= 1.911 (m),  Q= 6.21 (m3/s)",=NO RTP,-99,NO ANM,-99,https://wateroffice.ec.gc.ca/report/real_time_e.html?stn=07FBX08,11:59AM Fri 2024-07-26
08EC014,TWAIN CREEK TRIBUTARY NEAR BABINE LAKE,54.55947,-125.91444,"H= 1.821 (m),  Q= 0 (m3/s)",<1Y,0,=0%,0,https://wateroffice.ec.gc.ca/report/real_time_e.html?stn=08EC014,11:59AM Fri 2024-07-26
08EG012,EXCHAMSIKS RIVER NEAR TERRACE,54.36219,-129.31283,NO DATA,=NO DATA,-9999,NO DATA,-9999,https://wateroffice.ec.gc.ca/report/real_time_e.html?stn=08EG012,11:59AM Fri 2024-07-26
08EG019,KITSUMKALUM RIVER BELOW ALICE CREEK,54.6793,-128.74396,"H= 3.794 (m),  Q= 120 (m3/s)",<1Y,0,=106.42%,100,https://wateroffice.ec.gc.ca/report/real_time_e.html?stn=08EG019,11:59AM Fri 2024-07-26
08GA010,CAPILANO RIVER ABOVE INTAKE,49.39624,-123.14584,"H= 0.67 (m),  Q= 1.3 (m3/s)",<1Y,0,=6.42%,5,https://wateroffice.ec.gc.ca/report/real_time_e.html?stn=08GA010,11:59AM Fri 2024-07-26
08HB041,JUMP CREEK AT THE MOUTH,49.02497,-124.18681,"H= 0.786 (m),  Q= 1.19 (m3/s)",<1Y,0,=25.05%,20,https://wateroffice.ec.gc.ca/report/real_time_e.html?stn=08HB041,11:59AM Fri 2024-07-26
08HB092,SOUTH NANAIMO RIVER NEAR JUNCTION,49.06016,-124.12629,"H= 2.075 (m),  Q= 0.539 (m3/s)",<1Y,0,=4.12%,2,https://wateroffice.ec.gc.ca/report/real_time_e.html?stn=08HB092,11:59AM Fri 2024-07-26
08JE004,TSILCOH RIVER NEAR THE MOUTH,54.61081,-124.24776,"H= 3.096 (m),  Q= 0.229 (m3/s)",<1Y,0,=8.88%,5,https://wateroffice.ec.gc.ca/report/real_time_e.html?stn=08JE004,11:59AM Fri 2024-07-26
08KH019,MOFFAT CREEK NEAR HORSEFLY,52.31556,-121.40806,"H= 1.125 (m),  Q= 0.329 (m3/s)",<1Y,0,=9.48%,5,https://wateroffice.ec.gc.ca/report/real_time_e.html?stn=08KH019,11:59AM Fri 2024-07-26
08KH020,MCKINLEY CREEK BELOW OUTLET OF MCKINLEY LAKE,52.28083,-121.00136,"H= 0.911 (m),  Q= 3.37 (m3/s)",<1Y,0,=66.73%,50,https://wateroffice.ec.gc.ca/report/real_time_e.html?stn=08KH020,11:59AM Fri 2024-07-26
08LE108,EAST CANOE CREEK ABOVE DAM,50.69665,-119.19616,"H= 0.06 (m),  Q= 0.035 (m3/s)",<1Y,0,=31.82%,20,https://wateroffice.ec.gc.ca/report/real_time_e.html?stn=08LE108,11:59AM Fri 2024-07-26
08LF099,ARROWSTONE CREEK NEAR THE MOUTH,50.83575,-121.23995,"H= 1.744 (m),  Q= 0.06 (m3/s)",<1Y,0,=50%,50,https://wateroffice.ec.gc.ca/report/real_time_e.html?stn=08LF099,11:59AM Fri 2024-07-26
08LG028,NICOLA RIVER AT OUTLET OF DOUGLAS LAKE,50.13989,-120.28364,Q= 1.09 (m3/s),<1Y,0,=20.19%,20,https://wateroffice.ec.gc.ca/report/real_time_e.html?stn=08LG028,11:59AM Fri 2024-07-26
08LG069,DOUGLAS LAKE AT SPAXOMIN,50.14325,-120.27957,H= 1.639 (m),<1Y,0,NO DATA,-9999,https://wateroffice.ec.gc.ca/report/real_time_e.html?stn=08LG069,11:59AM Fri 2024-07-26
08MA006,LINGFIELD CREEK NEAR THE MOUTH,51.67386,-124.14531,"H= 0.342 (m),  Q= 0.223 (m3/s)",<1Y,0,=28.96%,20,https://wateroffice.ec.gc.ca/report/real_time_e.html?stn=08MA006,11:59AM Fri 2024-07-26
08MC045,SHERIDAN CREEK ABOVE MCLEESE LAKE,52.42625,-122.29464,"H= 0.152 (m),  Q= 0.074 (m3/s)",<1Y,0,=32.17%,20,https://wateroffice.ec.gc.ca/report/real_time_e.html?stn=08MC045,11:59AM Fri 2024-07-26
08MG025,PEMBERTON CREEK NEAR PEMBERTON,50.31554,-122.80465,"H= 2.022 (m),  Q= 1.36 (m3/s)",<1Y,0,=79.53%,50,https://wateroffice.ec.gc.ca/report/real_time_e.html?stn=08MG025,11:59AM Fri 2024-07-26
08NB016,SPLIT CREEK AT THE MOUTH,51.5265,-116.8989,"H= 0.874 (m),  Q= 5.03 (m3/s)",<1Y,0,=303.01%,100,https://wateroffice.ec.gc.ca/report/real_time_e.html?stn=08NB016,11:59AM Fri 2024-07-26
08NC004,CANOE RIVER BELOW KIMMEL CREEK,52.73153,-119.38486,"H= 2.489 (m),  Q= 25.6 (m3/s)",<1Y,0,=174.27%,100,https://wateroffice.ec.gc.ca/report/real_time_e.html?stn=08NC004,11:59AM Fri 2024-07-26
08ND026,REVELSTOKE RESERVOIR AT MARTHA CREEK,51.14661,-118.20053,H= 26.883 (m),<1Y,0,NO DATA,-9999,https://wateroffice.ec.gc.ca/report/real_time_e.html?stn=08ND026,11:59AM Fri 2024-07-26
08NG077,ST. MARY RIVER BELOW MORRIS CREEK,49.73727,-116.43504,"H= 1.535 (m),  Q= 3.61 (m3/s)",<1Y,0,=50.77%,50,https://wateroffice.ec.gc.ca/report/real_time_e.html?stn=08NG077,11:59AM Fri 2024-07-26
08NH115,SULLIVAN CREEK NEAR CANYON,49.10427,-116.43675,NO DATA,=NO DATA,-9999,NO DATA,-9999,https://wateroffice.ec.gc.ca/report/real_time_e.html?stn=08NH115,11:59AM Fri 2024-07-26
08NK022,LINE CREEK AT THE MOUTH,49.89149,-114.83336,"H= 0.683 (m),  Q= 1.62 (m3/s)",<1Y,0,=76.78%,50,https://wateroffice.ec.gc.ca/report/real_time_e.html?stn=08NK022,11:59AM Fri 2024-07-26
08NP003,HOWELL CREEK ABOVE CABIN CREEK,49.09472,-114.53583,"H= 0.6 (m),  Q= 1.87 (m3/s)",<1Y,0,=68%,50,https://wateroffice.ec.gc.ca/report/real_time_e.html?stn=08NP003,11:59AM Fri 2024-07-26
08OA004,HONNA RIVER NEAR THE MOUTH,53.25268,-132.13803,"H= 1.096 (m),  Q= 0.187 (m3/s)",<1Y,0,=14.27%,10,https://wateroffice.ec.gc.ca/report/real_time_e.html?stn=08OA004,11:59AM Fri 2024-07-26
08HF005,NIMPKISH RIVER ABOVE WOSS RIVER,50.21483,-126.61081,"H= 0.367 (m),  Q= 6.63 (m3/s)",<1Y,0,=11.31%,10,https://wateroffice.ec.gc.ca/report/real_time_e.html?stn=08HF005,11:59AM Fri 2024-07-26
07FAX06,HALFWAY RIVER NEAR FARRELL CREEK (AUXILIARY STATION),56.25075,-121.6285,"H= 0.558 (m),  Q= 87.6 (m3/s)",=NO RTP,-99,NO ANM,-99,https://wateroffice.ec.gc.ca/report/real_time_e.html?stn=07FAX06,11:59AM Fri 2024-07-26
08LB024,FISHTRAP CREEK NEAR MCLURE,51.12203,-120.20894,"H= 1.989 (m),  Q= 0.082 (m3/s)",<1Y,0,=10.12%,10,https://wateroffice.ec.gc.ca/report/real_time_e.html?stn=08LB024,11:59AM Fri 2024-07-26
08MD013,FRASER RIVER AT BIG BAR CREEK,51.183,-122.131944,"H= 6.885 (m),  Q= 1920 (m3/s)",<1Y,0,=104.13%,100,https://wateroffice.ec.gc.ca/report/real_time_e.html?stn=08MD013,11:59AM Fri 2024-07-26
08DA012,KELLY CREEK NEAR STEWART,56.2925,-129.2294444,"H= 1.172 (m),  Q= 0.055 (m3/s)",<1Y,0,=18.33%,10,https://wateroffice.ec.gc.ca/report/real_time_e.html?stn=08DA012,11:59AM Fri 2024-07-26
08EE008,GOATHORN CREEK NEAR TELKWA,54.64833333,-127.1230556,"H= 1.285 (m),  Q= 0.976 (m3/s)",<1Y,0,=55.77%,50,https://wateroffice.ec.gc.ca/report/real_time_e.html?stn=08EE008,11:59AM Fri 2024-07-26
08GA079,SEYMOUR RIVER ABOVE LAKEHEAD,49.49694444,-122.9688889,"H= 8.924 (m),  Q= 0.541 (m3/s)",<1Y,0,=6.09%,5,https://wateroffice.ec.gc.ca/report/real_time_e.html?stn=08GA079,11:59AM Fri 2024-07-26
08GAX43,CHEAKAMUS RIVER NEAR BRACKENDALE,49.81583333,-123.15,"H= 1.143 (m),  Q= 48.2 (m3/s)",=NO RTP,-99,NO ANM,-99,https://wateroffice.ec.gc.ca/report/real_time_e.html?stn=08GAX43,11:59AM Fri 2024-07-26
08HD024,CAMPBELL RIVER AT ARGONAUT WHARF,50.04222222,-125.2469444,H= 2.589 (m),=NO RTP,-99,NO DATA,-9999,https://wateroffice.ec.gc.ca/report/real_time_e.html?stn=08HD024,11:59AM Fri 2024-07-26
08HDX24,CAMPBELL RIVER AT ARGONAUT WHARF,50.38666667,-125.2469444,H= 2.592 (m),=NO RTP,-99,NO DATA,-9999,https://wateroffice.ec.gc.ca/report/real_time_e.html?stn=08HDX24,11:59AM Fri 2024-07-26
08JA029,WHITESAIL MIDDLE CREEK NEAR TAHTSA REACH,53.6625,-126.9902778,"H= 1.963 (m),  Q= 0.062 (m3/s)",<1Y,0,=36.47%,20,https://wateroffice.ec.gc.ca/report/real_time_e.html?stn=08JA029,11:59AM Fri 2024-07-26
08LC040,VANCE CREEK BELOW DEAFIES CREEK,50.28416667,-118.9469444,"H= 0.153 (m),  Q= 0.142 (m3/s)",<1Y,0,=27.84%,20,https://wateroffice.ec.gc.ca/report/real_time_e.html?stn=08LC040,11:59AM Fri 2024-07-26
08LG017,QUILCHENA CREEK AT QUILCHENA,50.142,-120.4997222,"H= 2.086 (m),  Q= 0.008 (m3/s)",<1Y,0,=0.51%,0,https://wateroffice.ec.gc.ca/report/real_time_e.html?stn=08LG017,11:59AM Fri 2024-07-26
08LG068,SPIUS CREEK BELOW SILVER CREEK,49.95,-121.0963889,NO DATA,=NO DATA,-9999,NO DATA,-9999,https://wateroffice.ec.gc.ca/report/real_time_e.html?stn=08LG068,11:59AM Fri 2024-07-26
08NBX17,KINBASKET LAKE BELOW GARRETT CREEK,51.89055556,-117.9119444,H= 744.615 (m),=NO RTP,-99,NO DATA,-9999,https://wateroffice.ec.gc.ca/report/real_time_e.html?stn=08NBX17,11:59AM Fri 2024-07-26
08NE087,DEER CREEK AT DEER PARK,49.44833333,-118.0419444,"H= 0.187 (m),  Q= 0.326 (m3/s)",<1Y,0,=35.82%,20,https://wateroffice.ec.gc.ca/report/real_time_e.html?stn=08NE087,11:59AM Fri 2024-07-26
08PA012,SKAGIT RIVER ABOVE KLESILKWA RIVER,49.11834,-121.16729,"H= 5.307 (m),  Q= 4.34 (m3/s)",<1Y,0,NO ANM,-99,https://wateroffice.ec.gc.ca/report/real_time_e.html?stn=08PA012,11:59AM Fri 2024-07-26
08MB012,CHILCOTIN RIVER NEAR HANCEVILLE,51.92061,-123.08083,"H= 3.405 (m),  Q= 234 (m3/s)",=1-2Y,1,=384.43%,100,https://wateroffice.ec.gc.ca/report/real_time_e.html?stn=08MB012,11:59AM Fri 2024-07-26
10AA001,LIARD RIVER AT UPPER CROSSING (YT),60.05083333,-128.9069444,"H= 3.342 (m),  Q= 646 (m3/s)",<1Y,0,=172.02%,100,https://wateroffice.ec.gc.ca/report/real_time_e.html?stn=10AA001,11:59AM Fri 2024-07-26
10AA004,RANCHERIA RIVER NEAR THE MOUTH (YT),60.20417,-129.55,"H= 9.294 (m),  Q= 232 (m3/s)",=1-2Y,1,=448.74%,100,https://wateroffice.ec.gc.ca/report/real_time_e.html?stn=10AA004,11:59AM Fri 2024-07-26
10AA006,LIARD RIVER BELOW SCURVY CREEK (YT),60.81078,-130.52103,"H= 7.051 (m),  Q= 71.1 (m3/s)",<1Y,0,=149.15%,100,https://wateroffice.ec.gc.ca/report/real_time_e.html?stn=10AA006,11:59AM Fri 2024-07-26
10AB001,FRANCES RIVER NEAR WATSON LAKE (YT),60.47389,-129.11889,"H= 1.737 (m),  Q= 187 (m3/s)",<1Y,0,=115.85%,100,https://wateroffice.ec.gc.ca/report/real_time_e.html?stn=10AB001,11:59AM Fri 2024-07-26
10AD002,HYLAND RIVER AT KILOMETRE 108.5 NAHANNI RANGE ROAD (YT),61.48681,-128.24214,"H= 0.776 (m),  Q= 62.3 (m3/s)",<1Y,0,=144.58%,100,https://wateroffice.ec.gc.ca/report/real_time_e.html?stn=10AD002,11:59AM Fri 2024-07-26
08MG001,CHEHALIS RIVER NEAR HARRISON MILLS,49.30003,-121.9378,"H= 8.872 (m),  Q= 5.76 (m3/s)",<1Y,0,=15%,10,https://wateroffice.ec.gc.ca/report/real_time_e.html?stn=08MG001,11:59AM Fri 2024-07-26
08GA075,MAMQUAM RIVER ABOVE RING CREEK,49.72595,-123.1021,"H= 1.397 (m),  Q= 11.1 (m3/s)",<1Y,0,=45.09%,20,https://wateroffice.ec.gc.ca/report/real_time_e.html?stn=08GA075,11:59AM Fri 2024-07-26
08HF015,EVE RIVER BELOW KUNNUM CREEK,50.316286,-126.232431,"H= 3.107 (m),  Q= 1.11 (m3/s)",<1Y,0,=16.32%,10,https://wateroffice.ec.gc.ca/report/real_time_e.html?stn=08HF015,11:59AM Fri 2024-07-26
08NHX18,DUNCAN RIVER BELOW LARDEAU RIVER (AUXILIARY GAUGE),50.23286,-116.95519,"H= 2.016 (m),  Q= 121 (m3/s)",=NO RTP,-99,NO ANM,-99,https://wateroffice.ec.gc.ca/report/real_time_e.html?stn=08NHX18,11:59AM Fri 2024-07-26
08MH029,SUMAS RIVER NEAR HUNTINGDON,49.00249,-122.2323,"H= 0.679 (m),  Q= 0.463 (m3/s)",<1Y,0,=13.34%,10,https://wateroffice.ec.gc.ca/report/real_time_e.html?stn=08MH029,11:59AM Fri 2024-07-26
08MH153,FISHTRAP CREEK AT INTERNATIONAL BOUNDARY,49.00233,-122.40696,"H= 2.828 (m),  Q= 0.115 (m3/s)",<1Y,0,=14.2%,10,https://wateroffice.ec.gc.ca/report/real_time_e.html?stn=08MH153,11:59AM Fri 2024-07-26
08MH156,PEPIN CREEK AT INTERNATIONAL BOUNDARY,49.00368,-122.47187,"H= 1.088 (m),  Q= 0.045 (m3/s)",<1Y,0,=22.5%,20,https://wateroffice.ec.gc.ca/report/real_time_e.html?stn=08MH156,11:59AM Fri 2024-07-26
07ED001,NATION RIVER NEAR FORT ST. JAMES,55.2,-124.23333,"H= 0.983 (m),  Q= 24 (m3/s)",<1Y,0,=37.55%,20,https://wateroffice.ec.gc.ca/report/real_time_e.html?stn=07ED001,11:59AM Fri 2024-07-26
08EB007,KITWANGA RIVER NEAR KITWANGA,55.1164,-128.05392,"H= 1.816 (m),  Q= 5.96 (m3/s)",<1Y,0,NO ANM,-99,https://wateroffice.ec.gc.ca/report/real_time_e.html?stn=08EB007,11:59AM Fri 2024-07-26
08HB006,PUNTLEDGE RIVER AT COURTENAY,49.68803,-125.03419,"H= 19.965 (m),  Q= 12.7 (m3/s)",<1Y,0,=30.73%,20,https://wateroffice.ec.gc.ca/report/real_time_e.html?stn=08HB006,11:59AM Fri 2024-07-26
08HD022,CAMPBELL RIVER AT CAMPBELL RIVER LODGE,50.03364,-125.26758,H= -0.242 (m),<1Y,0,NO DATA,-9999,https://wateroffice.ec.gc.ca/report/real_time_e.html?stn=08HD022,11:59AM Fri 2024-07-26
08HD035,CAMPBELL RIVER NEAR CAMPBELL RIVER CABLEWAY,50.03736,-125.28692,"H= 3.95 (m),  Q= 38.4 (m3/s)",=NO RTP,-99,NO ANM,-99,https://wateroffice.ec.gc.ca/report/real_time_e.html?stn=08HD035,11:59AM Fri 2024-07-26
08HDX05,QUINSAM RIVER NEAR CAMPBELL RIVER (AUXILIARY STATION),50.02921,-125.3,"H= 0.733 (m),  Q= 2.11 (m3/s)",=NO RTP,-99,NO ANM,-99,https://wateroffice.ec.gc.ca/report/real_time_e.html?stn=08HDX05,11:59AM Fri 2024-07-26
08HDX22,CAMPBELL RIVER AT CAMPBELL RIVER LODGE (AUXILIARY STATION),50.03364,-125.26758,H= -0.269 (m),=NO RTP,-99,NO DATA,-9999,https://wateroffice.ec.gc.ca/report/real_time_e.html?stn=08HDX22,11:59AM Fri 2024-07-26
08HDX35,CAMPBELL RIVER NEAR CAMPBELL RIVER CABLEWAY (AUXILIARY STATION),50.03736,-125.28692,"H= 3.946 (m),  Q= 38 (m3/s)",=NO RTP,-99,NO ANM,-99,https://wateroffice.ec.gc.ca/report/real_time_e.html?stn=08HDX35,11:59AM Fri 2024-07-26
08LC042,BESSETTE CREEK ABOVE LUMBY LAGOON OUTFALL,50.25247,-118.96124,"H= 0.187 (m),  Q= 0.704 (m3/s)",<1Y,0,=22.78%,20,https://wateroffice.ec.gc.ca/report/real_time_e.html?stn=08LC042,11:59AM Fri 2024-07-26
08LF033,THOMPSON RIVER NEAR SAVONA,50.75208,-120.87361,"H= 12.787 (m),  Q= 1070 (m3/s)",<1Y,0,=155.79%,100,https://wateroffice.ec.gc.ca/report/real_time_e.html?stn=08LF033,11:59AM Fri 2024-07-26
08LG056,GUICHON CREEK ABOVE TUNKWA LAKE DIVERSION,50.60783,-120.91086,"H= 0.216 (m),  Q= 0.071 (m3/s)",=NO RTP,-99,=41.76%,20,https://wateroffice.ec.gc.ca/report/real_time_e.html?stn=08LG056,11:59AM Fri 2024-07-26
08MG028,RYAN RIVER NEAR PEMBERTON MEADOWS,50.39933,-122.89583,"H= 18.367 (m),  Q= 28.6 (m3/s)",<1Y,0,NO ANM,-99,https://wateroffice.ec.gc.ca/report/real_time_e.html?stn=08MG028,11:59AM Fri 2024-07-26
08NB021,BEAVER RIVER ABOVE CUPOLA CREEK,51.48781,-117.49161,"H= 2.318 (m),  Q= 54.1 (m3/s)",<1Y,0,NO ANM,-99,https://wateroffice.ec.gc.ca/report/real_time_e.html?stn=08NB021,11:59AM Fri 2024-07-26
08NE130,WHATSHAN RIVER BELOW BARNES CREEK,49.89956,-118.12539,"H= 3.557 (m),  Q= 4.86 (m3/s)",<1Y,0,NO ANM,-99,https://wateroffice.ec.gc.ca/report/real_time_e.html?stn=08NE130,11:59AM Fri 2024-07-26
08NM172,PEARSON CREEK NEAR THE MOUTH,49.88694,-119.06167,"H= 1.465 (m),  Q= 0.621 (m3/s)",<1Y,0,=64.69%,50,https://wateroffice.ec.gc.ca/report/real_time_e.html?stn=08NM172,11:59AM Fri 2024-07-26
08NM248,COLDSTREAM CREEK AT COLDSTREAM CREEK ROAD,50.216389,-119.224167,"H= 4.238 (m),  Q= 0.188 (m3/s)",<1Y,0,NO ANM,-99,https://wateroffice.ec.gc.ca/report/real_time_e.html?stn=08NM248,11:59AM Fri 2024-07-26
08OA005,TARUNDL CREEK NEAR QUEEN CHARLOTTE,53.24399,-132.14786,"H= 1.024 (m),  Q= 0.049 (m3/s)",<1Y,0,=9.42%,5,https://wateroffice.ec.gc.ca/report/real_time_e.html?stn=08OA005,11:59AM Fri 2024-07-26
08KB006,MULLER CREEK NEAR THE MOUTH,54.296667,-120.977222,"H= 3.475 (m),  Q= 2.73 (m3/s)",<1Y,0,NO ANM,-99,https://wateroffice.ec.gc.ca/report/real_time_e.html?stn=08KB006,11:59AM Fri 2024-07-26
09AA006,ATLIN RIVER NEAR ATLIN,59.595278,-133.814167,Q= 268 (m3/s),=2-5Y,2,NO ANM,-99,https://wateroffice.ec.gc.ca/report/real_time_e.html?stn=09AA006,11:59AM Fri 2024-07-26
08EG018,CLARENCE CREEK NEAR ROSSWOOD,54.9925,-128.806667,"H= 2.161 (m),  Q= 0.089 (m3/s)",<1Y,0,NO ANM,-99,https://wateroffice.ec.gc.ca/report/real_time_e.html?stn=08EG018,11:59AM Fri 2024-07-26
08GD010,SOUTHGATE RIVER ABOVE ELLIOT CREEK,50.861667,-124.643889,"H= 10.141 (m),  Q= 232 (m3/s)",<1Y,0,NO ANM,-99,https://wateroffice.ec.gc.ca/report/real_time_e.html?stn=08GD010,11:59AM Fri 2024-07-26
08MH166,CEDAR CREEK ABOVE THE MOUTH,49.380833,-122.776667,"H= 1.346 (m),  Q= 0.261 (m3/s)",<1Y,0,NO ANM,-99,https://wateroffice.ec.gc.ca/report/real_time_e.html?stn=08MH166,11:59AM Fri 2024-07-26
08MH090,"SALMON RIVER AT 72 AVENUE, LANGLEY",49.133333,-122.596389,"H= 1.399 (m),  Q= 0.326 (m3/s)",<1Y,0,NO ANM,-99,https://wateroffice.ec.gc.ca/report/real_time_e.html?stn=08MH090,11:59AM Fri 2024-07-26
08NM158,TROUT CREEK AT THE MOUTH,49.567778,-119.631667,"H= 3.2 (m),  Q= 0.804 (m3/s)",<1Y,0,NO ANM,-99,https://wateroffice.ec.gc.ca/report/real_time_e.html?stn=08NM158,11:59AM Fri 2024-07-26
08NM232,BELGO CREEK BELOW HILDA CREEK,50.000278,-119.072778,"H= 1.121 (m),  Q= 0.07 (m3/s)",<1Y,0,NO ANM,-99,https://wateroffice.ec.gc.ca/report/real_time_e.html?stn=08NM232,11:59AM Fri 2024-07-26
08NK026,HOSMER CREEK ABOVE DIVERSIONS,49.584167,-114.953889,"H= 0.946 (m),  Q= 0.017 (m3/s)",<1Y,0,NO ANM,-99,https://wateroffice.ec.gc.ca/report/real_time_e.html?stn=08NK026,11:59AM Fri 2024-07-26
08LG070,NICOLA RIVER SOUTH OF SHACKAN,50.24781,-121.11155,"H= 3.065 (m),  Q= 6.29 (m3/s)",<1Y,0,NO ANM,-99,https://wateroffice.ec.gc.ca/report/real_time_e.html?stn=08LG070,11:59AM Fri 2024-07-26
07FAX04,PEACE RIVER ABOVE PINE RIVER (AUXILIARY GAUGE),56.19917,-120.81444,"H= 1 (m),  Q= 883 (m3/s)",=NO RTP,-99,NO ANM,-99,https://wateroffice.ec.gc.ca/report/real_time_e.html?stn=07FAX04,11:59AM Fri 2024-07-26
07FDX02,PEACE RIVER NEAR TAYLOR (AUXILIARY GAUGE),56.13583,-120.67028,"H= 2.649 (m),  Q= 1020 (m3/s)",=NO RTP,-99,NO ANM,-99,https://wateroffice.ec.gc.ca/report/real_time_e.html?stn=07FDX02,11:59AM Fri 2024-07-26
08MH032,NORTH ARM FRASER RIVER AT VANCOUVER,49.20536,-123.08864,H= 3.246 (m),=NO RTP,-99,NO DATA,-9999,https://wateroffice.ec.gc.ca/report/real_time_e.html?stn=08MH032,11:59AM Fri 2024-07-26
08ND021,GREELEY CREEK ABOVE DIVERSION,51.006,-118.057,H= 4.827 (m),=NO RTP,-99,NO DATA,-9999,https://wateroffice.ec.gc.ca/report/real_time_e.html?stn=08ND021,11:59AM Fri 2024-07-26
08HBX87,COMOX HARBOUR AT GOOSE SPIT (AUXILIARY GAUGE),49.66389,-124.91736,H= 4.698 (m),=NO RTP,-99,NO DATA,-9999,https://wateroffice.ec.gc.ca/report/real_time_e.html?stn=08HBX87,11:59AM Fri 2024-07-26
08JA018,CHESLATTA LAKE AT WEST END,53.707778,-125.610833,H= 5.708 (m),=1-2Y,1,NO DATA,-9999,https://wateroffice.ec.gc.ca/report/real_time_e.html?stn=08JA018,11:59AM Fri 2024-07-26
08MC049,BORLAND CREEK ABOVE VALLEY CREEK,52.110278,-121.930278,"H= 1.657 (m),  Q= 0.001 (m3/s)",<1Y,0,NO ANM,-99,https://wateroffice.ec.gc.ca/report/real_time_e.html?stn=08MC049,11:59AM Fri 2024-07-26
08LE077,CORNING CREEK NEAR SQUILAX,50.913056,-119.532778,"H= 0.964 (m),  Q= 0.084 (m3/s)",<1Y,0,NO ANM,-99,https://wateroffice.ec.gc.ca/report/real_time_e.html?stn=08LE077,11:59AM Fri 2024-07-26
08LD003,ADAMS LAKE NEAR SQUILAX,50.953333,-119.675278,H= 2.871 (m),<1Y,0,NO DATA,-9999,https://wateroffice.ec.gc.ca/report/real_time_e.html?stn=08LD003,11:59AM Fri 2024-07-26
08LF094,JOE ROSS CREEK NEAR THE MOUTH,51.152222,-120.858056,"H= 2.302 (m),  Q= 0.02 (m3/s)",<1Y,0,NO ANM,-99,https://wateroffice.ec.gc.ca/report/real_time_e.html?stn=08LF094,11:59AM Fri 2024-07-26
08LF100,DAIRY CREEK ABOVE TSOTIN LAKE,50.840556,-121.154167,"H= 0.238 (m),  Q= 0.009 (m3/s)",<1Y,0,NO ANM,-99,https://wateroffice.ec.gc.ca/report/real_time_e.html?stn=08LF100,11:59AM Fri 2024-07-26
08MF076,FRASER RIVER ABOVE HUNTER CREEK,49.360556,-121.569167,H= 26.669 (m),<1Y,0,NO DATA,-9999,https://wateroffice.ec.gc.ca/report/real_time_e.html?stn=08MF076,11:59AM Fri 2024-07-26
08MF074,FRASER RIVER ABOVE HERRLING ISLAND,49.265,-121.681111,H= 19.039 (m),<1Y,0,NO DATA,-9999,https://wateroffice.ec.gc.ca/report/real_time_e.html?stn=08MF074,11:59AM Fri 2024-07-26
08MF075,FRASER RIVER AT LOWER KENT,49.226389,-121.905833,H= 8.863 (m),<1Y,0,NO DATA,-9999,https://wateroffice.ec.gc.ca/report/real_time_e.html?stn=08MF075,11:59AM Fri 2024-07-26
08MH016,CHILLIWACK RIVER AT OUTLET OF CHILLIWACK LAKE,49.083611,-121.458333,"H= 0.898 (m),  Q= 13.2 (m3/s)",<1Y,0,NO ANM,-99,https://wateroffice.ec.gc.ca/report/real_time_e.html?stn=08MH016,11:59AM Fri 2024-07-26
08MH098,WEST CREEK NEAR FORT LANGLEY,49.1475,-122.531667,"H= 1.862 (m),  Q= 0.018 (m3/s)",<1Y,0,NO ANM,-99,https://wateroffice.ec.gc.ca/report/real_time_e.html?stn=08MH098,11:59AM Fri 2024-07-26
08MH006,NORTH ALOUETTE RIVER AT 232ND STREET MAPLE RIDGE,49.2425,-122.58,"H= 0.102 (m),  Q= 0.327 (m3/s)",<1Y,0,NO ANM,-99,https://wateroffice.ec.gc.ca/report/real_time_e.html?stn=08MH006,11:59AM Fri 2024-07-26
08CE005,TAHLTAN RIVER AT THE MOUTH,58.013056,-130.9775,"H= 4.372 (m),  Q= 43.4 (m3/s)",<1Y,0,NO ANM,-99,https://wateroffice.ec.gc.ca/report/real_time_e.html?stn=08CE005,11:59AM Fri 2024-07-26
10AA005,BIG CREEK AT KM 1084.8 ALASKA HIGHWAY (YT),60.158333,-129.702778,"H= 4.071 (m),  Q= 26.8 (m3/s)",=1-2Y,1,NO ANM,-99,https://wateroffice.ec.gc.ca/report/real_time_e.html?stn=10AA005,11:59AM Fri 2024-07-26
10BD001,BEAVER RIVER BELOW WHITEFISH RIVER (YT),60.130556,-124.889167,"H= 26.158 (m),  Q= 113 (m3/s)",<1Y,0,NO ANM,-99,https://wateroffice.ec.gc.ca/report/real_time_e.html?stn=10BD001,11:59AM Fri 2024-07-26
10DB001,LABICHE RIVER AT YUKON BC BOUNDARY (YT),60.005833,-124.108333,"H= 7.166 (m),  Q= 74.7 (m3/s)",<1Y,0,NO ANM,-99,https://wateroffice.ec.gc.ca/report/real_time_e.html?stn=10DB001,11:59AM Fri 2024-07-26
10ED001,LIARD RIVER AT FORT LIARD (NT),60.241389,-123.475278,"H= 4.802 (m),  Q= 3790 (m3/s)",<1Y,0,NO ANM,-99,https://wateroffice.ec.gc.ca/report/real_time_e.html?stn=10ED001,11:59AM Fri 2024-07-26
08NE008,BEATON CREEK NEAR BEATON,50.734444,-117.729167,"H= 6.25 (m),  Q= 2.19 (m3/s)",<1Y,0,NO ANM,-99,https://wateroffice.ec.gc.ca/report/real_time_e.html?stn=08NE008,11:59AM Fri 2024-07-26
08NM249,BX CREEK AT BX RANCH PARK,50.281111,-119.233333,H= 4.95 (m),<1Y,0,NO DATA,-9999,https://wateroffice.ec.gc.ca/report/real_time_e.html?stn=08NM249,11:59AM Fri 2024-07-26
08NM250,VERNON CREEK AT SWALWELL PARK,50.028611,-119.401389,H= 3.005 (m),=NO RTP,-99,NO DATA,-9999,https://wateroffice.ec.gc.ca/report/real_time_e.html?stn=08NM250,11:59AM Fri 2024-07-26
08NM139,ESPERON CREEK NEAR KELOWNA,50.073333,-119.687778,"H= 2.032 (m),  Q= 0.001 (m3/s)",<1Y,0,NO ANM,-99,https://wateroffice.ec.gc.ca/report/real_time_e.html?stn=08NM139,11:59AM Fri 2024-07-26
08NM165,LAMBLY CREEK ABOVE TERRACE CREEK,49.994167,-119.614444,"H= 1.381 (m),  Q= 0.076 (m3/s)",<1Y,0,NO ANM,-99,https://wateroffice.ec.gc.ca/report/real_time_e.html?stn=08NM165,11:59AM Fri 2024-07-26
08NL045,KEREMEOS CREEK BELOW WILLIS INTAKE,49.258889,-119.825556,"H= 0.714 (m),  Q= 0.448 (m3/s)",<1Y,0,NO ANM,-99,https://wateroffice.ec.gc.ca/report/real_time_e.html?stn=08NL045,11:59AM Fri 2024-07-26
08GA026,CAPILANO RIVER ABOVE EASTCAP CREEK,49.453889,-123.109167,"H= 1.586 (m),  Q= 0.852 (m3/s)",<1Y,0,NO ANM,-99,https://wateroffice.ec.gc.ca/report/real_time_e.html?stn=08GA026,11:59AM Fri 2024-07-26
08HE001,MARBLE RIVER AT OUTLET OF ALICE LAKE,50.523889,-127.430833,"H= 2.804 (m),  Q= 5.82 (m3/s)",<1Y,0,NO ANM,-99,https://wateroffice.ec.gc.ca/report/real_time_e.html?stn=08HE001,11:59AM Fri 2024-07-26
08HD034,QUINSAM RIVER DIVERSION HEADPOND,49.93,-125.520278,H= 305.771 (m),=NO RTP,-99,NO DATA,-9999,https://wateroffice.ec.gc.ca/report/real_time_e.html?stn=08HD034,11:59AM Fri 2024-07-26
08MG00A,LILLOOET RIVER FSR (BC 08MG0001),50.5025,-122.9675,"H= 228.545 (m),  Q= 95.121 (m3/s)",<1Y,0,=92.23%,50,https://aqrt.nrs.gov.bc.ca/Data/DataSet/Chart/Location/08MG0001/DataSet/Discharge/Telemetry/Interval/Latest,11:59AM Fri 2024-07-26
08MG00C,GREEN RIVER AT NAIRN FALLS (BC 08MG0003),50.29286,-122.81313,H= 217.54 (m),=NO RTP,-99,NO DATA,-9999,https://aqrt.nrs.gov.bc.ca/Data/DataSet/Chart/Location/08MG0003/DataSet/Discharge/Telemetry/Interval/Latest,11:59AM Fri 2024-07-26
08MG00D,MILLER CREEK BASIN (BC 08MG0004),50.35127,-122.8553,H= 223.891 (m),<1Y,0,NO DATA,-9999,https://aqrt.nrs.gov.bc.ca/Data/DataSet/Chart/Location/08MG0004/DataSet/Stage/Telemetry/Interval/Latest,11:59AM Fri 2024-07-26
08MG00E,BIRKENHEAD RIVER DS OF OWL CREEK (BC 08MG0005),50.3325,-122.72556,"H= 2.587 (m),  Q= 15.495 (m3/s)",<1Y,0,=68.27%,50,https://aqrt.nrs.gov.bc.ca/Data/DataSet/Chart/Location/08MG0005/DataSet/Discharge/Telemetry/Interval/Latest,11:59AM Fri 2024-07-26
124015U,KETTLE RIVER NEAR FERRY WA (USGS 12401500),48.981389,-118.765278,"H= 2.984 (m),  Q= 8.527 (m3/s)",<1Y,0,=19.29%,10,https://waterdata.usgs.gov/monitoring-location/12401500/#parameterCode=00065&period=P7D,11:59AM Fri 2024-07-26
124045U,KETTLE RIVER NEAR LAURIER WA (USGS 12404500),48.984444,-118.215278,"H= 1.064 (m),  Q= 20.737 (m3/s)",<1Y,0,=24.78%,20,https://waterdata.usgs.gov/monitoring-location/12404500/#parameterCode=00065&period=P7D,11:59AM Fri 2024-07-26
123995U,COLUMBIA RIVER AT INTL BDRY (USGS 12399500),49.000833,-117.628333,"H= 30.254 (m),  Q= 3002.833 (m3/s)",<1Y,0,=106.69%,100,https://waterdata.usgs.gov/monitoring-location/12399500/#parameterCode=00065&period=P7D,11:59AM Fri 2024-07-26
123215U,BOUNDARY CREEK NR PORTHILL ID (USGS 12321500),48.997222,-116.569167,"H= 2.923 (m),  Q= 0.946 (m3/s)",<1Y,0,=16.6%,10,https://waterdata.usgs.gov/monitoring-location/12321500/#parameterCode=00065&period=P7D,11:59AM Fri 2024-07-26
123220U,KOOTENAI RIVER AT PORTHILL ID (USGS 12322000),48.996389,-116.5075,"H= 13.597 (m),  Q= 308.782 (m3/s)",<1Y,0,=72.89%,50,https://waterdata.usgs.gov/monitoring-location/12322000/#parameterCode=00065&period=P7D,11:59AM Fri 2024-07-26
123065U,MOYIE RIVER AT EASTPORT ID (USGS 12306500),48.999167,-116.179722,"H= 1.094 (m),  Q= 3.059 (m3/s)",<1Y,0,=15.85%,10,https://waterdata.usgs.gov/monitoring-location/12306500/#parameterCode=00065&period=P7D,11:59AM Fri 2024-07-26
123550U,FLATHEAD RIVER AT FLATHEAD BC (USGS 12355000),49.001242,-114.475664,"H= 1.433 (m),  Q= 11.558 (m3/s)",<1Y,0,=46.23%,20,https://waterdata.usgs.gov/monitoring-location/12355000/#parameterCode=00065&period=P7D,11:59AM Fri 2024-07-26
